ven_id,ven_name,ven_lat,ven_lng,ven_category_name,ven_category_id,ven_address,neighbourhood,neighbourhood_lat,neigbourhood_long,borough
4e8d9dcdd5fbbbb6b3003c7b,Brookbanks Park,43.751976046055574,-79.33214044722958,Park,4bf58dd8d48988d163941735,Toronto,Parkwoods,43.75,-79.33,North York
4e13a489b0fb5dfdd0756c90,PetSmart,43.748639084843475,-79.33348827385937,Pet Store,4bf58dd8d48988d100951735,Ontario,Parkwoods,43.75,-79.33,North York
4cb11e2075ebb60cd1c4caad,Variety Store,43.75197441585782,-79.33311418516017,Food & Drink Shop,4bf58dd8d48988d1f9941735,29 Valley Woods Road,Parkwoods,43.75,-79.33,North York
4aec8a50f964a5207ac821e3,Armenian Kitchen,43.73107096414275,-79.30539020048727,Middle Eastern Restaurant,4bf58dd8d48988d115941735,1646 Victoria Park Ave,Victoria Village,43.73,-79.31,North York
4bb653b9941ad13a7c401fe3,Wigmore Park,43.731023438497964,-79.3107706628902,Park,4bf58dd8d48988d163941735,Toronto ON,Victoria Village,43.73,-79.31,North York
4bd7591b35aad13a78ae8ef3,Memories of Africa,43.72660188313635,-79.31242694132447,Grocery Store,4bf58dd8d48988d118951735,1733 Eglinton Ave. E (at Sloane Ave.),Victoria Village,43.73,-79.31,North York
5b4a14d52463d80044e8a48d,The Retreat Nail & Beauty Bar,43.726134,-79.312205,Nail Salon,4f04aa0c2fb6e1c99f3db0b8,"1700 Eglinton Ave. E., Unit A6 (Sloane Ave)",Victoria Village,43.73,-79.31,North York
5092fe87e4b0476c6e7375e2,Regent Park Aquatic Centre,43.6606003130796,-79.36139162915349,Pool,4bf58dd8d48988d15e941735,640 Dundas St. East (at Sumach St.),"Regent Park, Harbourfront",43.66,-79.36,Downtown Toronto
5619551a498e9e35fce2256b,Sumach Espresso,43.65813540553308,-79.35951549011845,Coffee Shop,4bf58dd8d48988d1e0931735,118 Sumach St (at Shuter St),"Regent Park, Harbourfront",43.66,-79.36,Downtown Toronto
505af105e4b0df441225430b,Daniels Spectrum,43.66013679276432,-79.36180783336452,Performing Arts Venue,4bf58dd8d48988d1f2931735,585 Dundas St. East (btwn Regent & Sumach),"Regent Park, Harbourfront",43.66,-79.36,Downtown Toronto
505bacb2e4b0474d876eb78c,Paintbox Bistro,43.660050475903624,-79.36285470971839,Restaurant,4bf58dd8d48988d1c4941735,555 Dundas St E (Sackville St),"Regent Park, Harbourfront",43.66,-79.36,Downtown Toronto
566e1294498e3f6629006bc3,Dominion Pub and Kitchen,43.65691857501867,-79.35896684476664,Pub,4bf58dd8d48988d11b941735,500 Queen Street East,"Regent Park, Harbourfront",43.66,-79.36,Downtown Toronto
4b683ef1f964a520d66d2be3,Thai To Go,43.663418,-79.36071,Thai Restaurant,4bf58dd8d48988d149941735,452 Gerrard Street East (btw River & Sumach),"Regent Park, Harbourfront",43.66,-79.36,Downtown Toronto
502652fee4b0e6861eab1f29,Merchants of Green Coffee,43.659916,-79.353963,Coffee Shop,4bf58dd8d48988d1e0931735,2 Matilda St,"Regent Park, Harbourfront",43.66,-79.36,Downtown Toronto
5612b1cc498e3dd742af0dc8,Impact Kitchen,43.65636850543279,-79.35697968750694,Restaurant,4bf58dd8d48988d1c4941735,573 King St E (at St Lawrence St),"Regent Park, Harbourfront",43.66,-79.36,Downtown Toronto
4ae06ddef964a5203b7f21e3,Toronto Humane Society,43.65769802359708,-79.3565828808708,Animal Shelter,4e52d2d203646f7c19daa8ae,11 River St. (Queen St. E),"Regent Park, Harbourfront",43.66,-79.36,Downtown Toronto
4ada57aff964a520972121e3,Sukhothai,43.658444465539525,-79.36568085121628,Thai Restaurant,4bf58dd8d48988d149941735,274 Parliament St (btwn Coatsworth St. & Shuter St.),"Regent Park, Harbourfront",43.66,-79.36,Downtown Toronto
54d37e23498e5e29bcb35362,ODIN Cafe + Bar,43.656738544928054,-79.35650305267754,Café,4bf58dd8d48988d16d941735,514 King St E (at River St),"Regent Park, Harbourfront",43.66,-79.36,Downtown Toronto
4b845382f964a520dc2e31e3,Mercedes-Benz Downtown,43.66143119502613,-79.35658517368444,Auto Dealership,4eb1c1623b7b52c0e1adc2ec,761 Dundas Street East,"Regent Park, Harbourfront",43.66,-79.36,Downtown Toronto
4ee1490961aff90fe37e76da,Qi sushi,43.66255180762697,-79.36425843422568,Sushi Restaurant,4bf58dd8d48988d1d2941735,358 Gerrard St.E.,"Regent Park, Harbourfront",43.66,-79.36,Downtown Toronto
50899387e4b055a756b254fc,I Love Churros,43.65836361668554,-79.36558277878224,Food Truck,4bf58dd8d48988d1cb941735,1017 Dufferin St (Bloor St West),"Regent Park, Harbourfront",43.66,-79.36,Downtown Toronto
4ad8d551f964a5201f1521e3,Vistek,43.65704640025721,-79.35966695607046,Electronics Store,4bf58dd8d48988d122951735,496 Queen St E (at Sumach),"Regent Park, Harbourfront",43.66,-79.36,Downtown Toronto
4b8acdfdf964a520378232e3,The Beer Store,43.657773,-79.3574632,Beer Store,5370f356bcbc57f1066c94c2,28 River Street (Queen St E),"Regent Park, Harbourfront",43.66,-79.36,Downtown Toronto
55fe0dd0498ed5a5423b6d17,Shoppers Drug Mart,43.660204,-79.361332,Pharmacy,4bf58dd8d48988d10f951735,"593 Dundas St E, South Tower (at Regent Park Blvd)","Regent Park, Harbourfront",43.66,-79.36,Downtown Toronto
53a4b638498edce8c3153b44,Regent Park,43.660382523982804,-79.36181011844143,Park,4bf58dd8d48988d163941735,620 Dundas St E. (Dundas St E and Sumach St),"Regent Park, Harbourfront",43.66,-79.36,Downtown Toronto
579400f5498eeafb24897f10,Wendy’s,43.660403362711776,-79.36062902212149,Fast Food Restaurant,4bf58dd8d48988d16e941735,615 Dundas Street East (Sumach),"Regent Park, Harbourfront",43.66,-79.36,Downtown Toronto
5a6e0c605f68b93a075d0bc1,Tim Hortons,43.659935,-79.3613063,Restaurant,4bf58dd8d48988d1c4941735,69 Regent Park Blvd (at Dundas St E),"Regent Park, Harbourfront",43.66,-79.36,Downtown Toronto
4b2cf78cf964a52077cb24e3,Savoury Grounds,43.656820970004496,-79.3589698353747,Coffee Shop,4bf58dd8d48988d1e0931735,481 Queen St. East (Sumach St),"Regent Park, Harbourfront",43.66,-79.36,Downtown Toronto
4bca9a2e0687ef3b3e78dccc,Tim Hortons,43.6599299,-79.3659798,Coffee Shop,4bf58dd8d48988d1e0931735,335 Parliament St (Dundas st e),"Regent Park, Harbourfront",43.66,-79.36,Downtown Toronto
4cbc6a0f76ad9c7460ebe7cb,FreshCo,43.65955158801718,-79.36585713164392,Grocery Store,4bf58dd8d48988d118951735,325 Parliament St (at Dundas St),"Regent Park, Harbourfront",43.66,-79.36,Downtown Toronto
4dc59e341fc72e86376488aa,Bark Place Hotel and Spaw,43.6614665351425,-79.3575533174757,Pet Store,4bf58dd8d48988d100951735,738 Dundas St. East (River),"Regent Park, Harbourfront",43.66,-79.36,Downtown Toronto
5834fe851470b05200a49735,Wine Rack,43.656573,-79.356928,Wine Shop,4bf58dd8d48988d119951735,Toronto ON,"Regent Park, Harbourfront",43.66,-79.36,Downtown Toronto
52ae475e498e1d931502955d,Krystos,43.71851626753137,-79.45585522412502,Greek Restaurant,4bf58dd8d48988d10e941735,22-3200 Dufferin Street,"Lawrence Manor, Lawrence Heights",43.72,-79.45,North York
4b5f1f11f964a52047a729e3,Yuki Japanese Restaurant,43.72060971477955,-79.45611946822187,Sushi Restaurant,4bf58dd8d48988d1d2941735,3259 Dufferin St.,"Lawrence Manor, Lawrence Heights",43.72,-79.45,North York
558371db498eb7238b3505eb,Caffè Demetre,43.72017931839126,-79.45621855808365,Dessert Shop,4bf58dd8d48988d1d0941735,3250 Dufferin St,"Lawrence Manor, Lawrence Heights",43.72,-79.45,North York
4b9580fef964a52044a634e3,Mary Brown's Famous Chicken,43.71830860417442,-79.45570632677568,Fried Chicken Joint,4d4ae6fc7a7b7dea34424761,3199 Dufferin St. (at Samor Rd.),"Lawrence Manor, Lawrence Heights",43.72,-79.45,North York
4b3a6056f964a520ec6525e3,Tim Hortons,43.7163463,-79.4468676,Coffee Shop,4bf58dd8d48988d1e0931735,700 Lawrence Ave West Lawrence Square Mall (Allen Rd),"Lawrence Manor, Lawrence Heights",43.72,-79.45,North York
4cec65d10acea35dae19deae,KFC,43.7166,-79.447,Fast Food Restaurant,4bf58dd8d48988d16e941735,700 Lawrence Avenue West,"Lawrence Manor, Lawrence Heights",43.72,-79.45,North York
4e07a86445ddb2875c4c4698,Harbour Star Boat Cruise,43.71811392837763,-79.45023467228003,Moving Target,4f2a23984b9023bd5841ed2c,235 Queens Quay W,"Lawrence Manor, Lawrence Heights",43.72,-79.45,North York
4bc781946501c9b6bc8f3e29,Fortinos,43.716656,-79.447257,Grocery Store,4bf58dd8d48988d118951735,700 Lawrence Ave W,"Lawrence Manor, Lawrence Heights",43.72,-79.45,North York
4e72425a1495e4ca143b9fb8,McDonald's,43.7166442,-79.4467163,Fast Food Restaurant,4bf58dd8d48988d16e941735,700 Lawrence Ave W,"Lawrence Manor, Lawrence Heights",43.72,-79.45,North York
4fd50899e4b06a2d8dcf4842,Lawrence Square Food Court,43.717020075306216,-79.44724020082508,Food Court,4bf58dd8d48988d120951735,Canada,"Lawrence Manor, Lawrence Heights",43.72,-79.45,North York
4c78303d566db60c96cc400e,The Source,43.716624,-79.44738,Electronics Store,4bf58dd8d48988d122951735,"700 Lawrence Ave W, Unit 120","Lawrence Manor, Lawrence Heights",43.72,-79.45,North York
51db0e41498ed7f9ea7db94e,Fit4Less,43.716656,-79.447257,Gym,4bf58dd8d48988d176941735,"700 Lawrence Ave W, 235","Lawrence Manor, Lawrence Heights",43.72,-79.45,North York
570fc884498eb17fdbfdff10,HomeSense,43.716651,-79.447267,Furniture / Home Store,4bf58dd8d48988d1f8941735,700 Lawrence Avenue West,"Lawrence Manor, Lawrence Heights",43.72,-79.45,North York
4ed5a1f42fb63f69a672950e,Bell,43.7165544455837,-79.4474494457244,Mobile Phone Shop,4f04afc02fb6e1c99f3db0bc,"700 Lawrence Ave W, Level 1","Lawrence Manor, Lawrence Heights",43.72,-79.45,North York
4e87a110d5fb988c9dd926c4,Flemington Park,43.721210814285435,-79.44456338882446,Park,4bf58dd8d48988d163941735,North York Division (Flemington Road and Allen Road),"Lawrence Manor, Lawrence Heights",43.72,-79.45,North York
4a8355bff964a520d3fa1fe3,Mercatto,43.660390911898546,-79.38766421192705,Italian Restaurant,4bf58dd8d48988d110941735,101 College St,"Queen's Park, Ontario Provincial Government",43.66,-79.39,Downtown Toronto
5db70a0c306d6b000861ac9f,NEO COFFEE BAR,43.66013,-79.38583,Coffee Shop,4bf58dd8d48988d1e0931735,770 Bay Street Unit 3,"Queen's Park, Ontario Provincial Government",43.66,-79.39,Downtown Toronto
537d4d6d498ec171ba22e7fe,Jimmy's Coffee,43.65842123574496,-79.38561319551111,Coffee Shop,4bf58dd8d48988d1e0931735,82 Gerrard Street W (Gerrard & LaPlante),"Queen's Park, Ontario Provincial Government",43.66,-79.39,Downtown Toronto
576d30ed498ef2e95e26e6d0,Starbucks,43.65945605353152,-79.39041123272168,Coffee Shop,4bf58dd8d48988d1e0931735,101 College St (University Ave),"Queen's Park, Ontario Provincial Government",43.66,-79.39,Downtown Toronto
52d884c5498ecf5c7cafe5ab,Nando's,43.66172826,-79.38639146,Portuguese Restaurant,4def73e84765ae376e57713a,832 Bay St (Grenville St),"Queen's Park, Ontario Provincial Government",43.66,-79.39,Downtown Toronto
4b9d206bf964a520e69136e3,Queen's Park,43.66394609897775,-79.39217952520835,Park,4bf58dd8d48988d163941735,University Ave. (at Wellesley Ave.),"Queen's Park, Ontario Provincial Government",43.66,-79.39,Downtown Toronto
59ea2931f96b2c78d41cc639,Flock Rotisserie + Greens,43.659167,-79.389475,Fried Chicken Joint,4d4ae6fc7a7b7dea34424761,661 University Ave (College),"Queen's Park, Ontario Provincial Government",43.66,-79.39,Downtown Toronto
4b744336f964a520d8d02de3,Somethin' 2 Talk About,43.65839479027968,-79.38533765920816,Middle Eastern Restaurant,4bf58dd8d48988d115941735,78 Gerrard St W,"Queen's Park, Ontario Provincial Government",43.66,-79.39,Downtown Toronto
4aeb711ef964a52017c221e3,Vegetarian Haven,43.656016028357094,-79.3927577742003,Vegetarian / Vegan Restaurant,4bf58dd8d48988d1d3941735,17 Baldwin St,"Queen's Park, Ontario Provincial Government",43.66,-79.39,Downtown Toronto
57fe5f64498e08c9fc55cb87,Jimmy's Coffee,43.65582710322224,-79.39204216888555,Café,4bf58dd8d48988d16d941735,166 McCaul Street,"Queen's Park, Ontario Provincial Government",43.66,-79.39,Downtown Toronto
557231e3498e540f05f3083c,Tim Hortons,43.658569999999976,-79.38512341104502,Coffee Shop,4bf58dd8d48988d1e0931735,70 Gerrard St West (Bay St),"Queen's Park, Ontario Provincial Government",43.66,-79.39,Downtown Toronto
568bcf61498e3aaff5e351f8,Coffee Public,43.66076299149323,-79.38618409033066,Coffee Shop,4bf58dd8d48988d1e0931735,800 Bay St (at College St),"Queen's Park, Ontario Provincial Government",43.66,-79.39,Downtown Toronto
512ce732e4b0aa0ac5f50f05,Bubble Bath & Spa,43.65904951746615,-79.38534357912432,Spa,4bf58dd8d48988d1ed941735,736 Bay Street (Bay & Hayter),"Queen's Park, Ontario Provincial Government",43.66,-79.39,Downtown Toronto
4ad4cba2f964a520d1fb20e3,Panago,43.65825817735338,-79.38431282558368,Pizza Place,4bf58dd8d48988d1ca941735,44 Gerrard St. W (at Bay St.),"Queen's Park, Ontario Provincial Government",43.66,-79.39,Downtown Toronto
4c6affbe9669e21e3708aa51,Tim Hortons,43.6573986,-79.3883129,Coffee Shop,4bf58dd8d48988d1e0931735,555 University Ave (in Sick Kids Hospital),"Queen's Park, Ontario Provincial Government",43.66,-79.39,Downtown Toronto
4e868e1bd5fb2ee2eede857c,Starbucks,43.662407,-79.385943,Coffee Shop,4bf58dd8d48988d1e0931735,37 Grosvenor St (at Bay St),"Queen's Park, Ontario Provincial Government",43.66,-79.39,Downtown Toronto
4b23d2b2f964a520795a24e3,Dollarama,43.66068,-79.38468,Discount Store,52dea92d3cf9994f4e043dbb,"777 Bay St, College Park (at College St. W)","Queen's Park, Ontario Provincial Government",43.66,-79.39,Downtown Toronto
4aeb5014f964a520c7c021e3,Starbucks,43.658204,-79.388998,Coffee Shop,4bf58dd8d48988d1e0931735,"585 University Ave, R-16 (at Toronto General Hospital)","Queen's Park, Ontario Provincial Government",43.66,-79.39,Downtown Toronto
4ecd63d96da162f1bb0f11c4,Sushi Box,43.66295954544153,-79.38657996066198,Sushi Restaurant,4bf58dd8d48988d1d2941735,891 Bay street,"Queen's Park, Ontario Provincial Government",43.66,-79.39,Downtown Toronto
54238a83498e5efd4a50435b,Prenup Pub,43.658882366438164,-79.39482802742828,Gastropub,4bf58dd8d48988d155941735,191 College St (Henry St),"Queen's Park, Ontario Provincial Government",43.66,-79.39,Downtown Toronto
5187d8e9498e1f88b1f50ec7,Indigo,43.65773818776676,-79.38966149215145,Bookstore,4bf58dd8d48988d114951735,600 University Ave. (at Gerrard St. W),"Queen's Park, Ontario Provincial Government",43.66,-79.39,Downtown Toronto
574e261b498e1965822a01aa,Arctic Bites,43.65608524137075,-79.39291311374251,Ice Cream Shop,4bf58dd8d48988d1c9941735,21 Baldwin St,"Queen's Park, Ontario Provincial Government",43.66,-79.39,Downtown Toronto
4c054c04f56c2d7ffe711f66,Shoppers Drug Mart,43.658475,-79.384868,Pharmacy,4bf58dd8d48988d10f951735,700 Bay St (Gerrard Street),"Queen's Park, Ontario Provincial Government",43.66,-79.39,Downtown Toronto
4b9a73ecf964a5209db635e3,Booster Juice,43.65865699,-79.38868207,Smoothie Shop,52f2ab2ebcbc57f1066b8b41,"200 Elizabeth Street, Kiosk R5 (Toronto General Hospital) (btwn Gerrard & College)","Queen's Park, Ontario Provincial Government",43.66,-79.39,Downtown Toronto
57c07e5f498ed3724a049dc1,Colaba Junction,43.66094,-79.385635,Indian Restaurant,4bf58dd8d48988d10f941735,801 Bay Street,"Queen's Park, Ontario Provincial Government",43.66,-79.39,Downtown Toronto
5750c05e498ed2dde680c9b7,Light Café 路燈咖啡,43.65607098189164,-79.39302058882892,Café,4bf58dd8d48988d16d941735,23 Baldwin Street (btwn Henry & McCaul St),"Queen's Park, Ontario Provincial Government",43.66,-79.39,Downtown Toronto
576d6f42cd10a37101171051,Starbucks,43.65952575859537,-79.39027029345037,Coffee Shop,4bf58dd8d48988d1e0931735,661 University Ave. (College St.),"Queen's Park, Ontario Provincial Government",43.66,-79.39,Downtown Toronto
4d7b9170da568cfae33953ff,Subway,43.65946709895447,-79.38824850471555,Sandwich Place,4bf58dd8d48988d1c5941735,Toronto ON,"Queen's Park, Ontario Provincial Government",43.66,-79.39,Downtown Toronto
5beccbec2b274a002c3ef499,Booster Juice,43.660323,-79.385445,Juice Bar,4bf58dd8d48988d112941735,"777 Bay Street, M200a","Queen's Park, Ontario Provincial Government",43.66,-79.39,Downtown Toronto
51d85620498e93cd1678ebc5,Starbucks,43.65602357573824,-79.38877766280795,Coffee Shop,4bf58dd8d48988d1e0931735,525 University Ave. (at Elm St.),"Queen's Park, Ontario Provincial Government",43.66,-79.39,Downtown Toronto
4c87d69e13e3b1f71780d446,RBC Royal Bank,43.65933603842843,-79.38977326176165,Bank,4bf58dd8d48988d10a951735,661 UNIVERSITY AVE,"Queen's Park, Ontario Provincial Government",43.66,-79.39,Downtown Toronto
4ba8f061f964a520e8fb39e3,Midi Bistro,43.65587131386703,-79.39209126452964,French Restaurant,4bf58dd8d48988d10c941735,168 McCaul Street (Elm Street),"Queen's Park, Ontario Provincial Government",43.66,-79.39,Downtown Toronto
4e5cecc9fa76a4cf148bc565,Krispy Kreme Doughnut Cafe,43.65577205054815,-79.391993340322,Donut Shop,4bf58dd8d48988d148941735,162 McCaul St. (btwn D'Arcy & Baldwin),"Queen's Park, Ontario Provincial Government",43.66,-79.39,Downtown Toronto
55e1f58b498ed51280251aa4,Fat Bastard Burrito,43.65889963097279,-79.39452966832613,Burrito Place,4bf58dd8d48988d153941735,187 College St (at Henry St),"Queen's Park, Ontario Provincial Government",43.66,-79.39,Downtown Toronto
4bb0ad32f964a52031543ce3,Shoppers Drug Mart,43.657566,-79.388477,Pharmacy,4bf58dd8d48988d10f951735,555 University Ave (btw Elm & Gerrard),"Queen's Park, Ontario Provincial Government",43.66,-79.39,Downtown Toronto
4e98751acc217f441ef3f429,Subway,43.65897011920262,-79.3908742539673,Sandwich Place,4bf58dd8d48988d1c5941735,"700 University Avenue, Unit 4 (Hydro Office Building)","Queen's Park, Ontario Provincial Government",43.66,-79.39,Downtown Toronto
4bd28d6ccaff95213e2ad3f0,Est West Cafe,43.65954133608129,-79.39063666861075,Salad Place,4bf58dd8d48988d1bd941735,700 University Ave (at College Street),"Queen's Park, Ontario Provincial Government",43.66,-79.39,Downtown Toronto
4e7cb129b3ad0e8263d6e84b,Subway,43.657379532300766,-79.38743239235635,Sandwich Place,4bf58dd8d48988d1c5941735,"555 University Ave, Staff/Patients Only (at Elm St. (in Sick Kids Hospital))","Queen's Park, Ontario Provincial Government",43.66,-79.39,Downtown Toronto
4aec87eff964a52058c821e3,Cafe La Gaffe,43.65621134762937,-79.39333144271436,Café,4bf58dd8d48988d16d941735,24 Baldwin St. (at Henry St),"Queen's Park, Ontario Provincial Government",43.66,-79.39,Downtown Toronto
4b82ba3ff964a520c5e030e3,Second Cup,43.65763711605256,-79.3895120341753,Café,4bf58dd8d48988d16d941735,600 University Ave (Mount Sinai Hospital),"Queen's Park, Ontario Provincial Government",43.66,-79.39,Downtown Toronto
5671be66498efccf89f7e21f,Aroma Espresso Bar,43.658927676749364,-79.38990298985978,Café,4bf58dd8d48988d16d941735,Toronto ON,"Queen's Park, Ontario Provincial Government",43.66,-79.39,Downtown Toronto
4b72de05f964a520668c2de3,Second Cup,43.65901832092224,-79.3941523126699,Coffee Shop,4bf58dd8d48988d1e0931735,179 College St (at McCaul St.),"Queen's Park, Ontario Provincial Government",43.66,-79.39,Downtown Toronto
5ab3d9f875a6ea3a7ddc4d2b,Thai Express,43.66163,-79.38734,Thai Restaurant,4bf58dd8d48988d149941735,76 Grenville St,"Queen's Park, Ontario Provincial Government",43.66,-79.39,Downtown Toronto
4bce296fcc8cd13aeddfc3cf,Subway,43.658683235357074,-79.39489579355643,Sandwich Place,4bf58dd8d48988d1c5941735,195 College St (btwn Beverley & Henry),"Queen's Park, Ontario Provincial Government",43.66,-79.39,Downtown Toronto
4cbcf2730180721e7b49a761,TD Canada Trust,43.6608428,-79.3848856,Bank,4bf58dd8d48988d10a951735,777 Bay St (at College St),"Queen's Park, Ontario Provincial Government",43.66,-79.39,Downtown Toronto
59f25bd825ecca5f1cf24d0c,Omai,43.656006,-79.392494,Japanese Restaurant,4bf58dd8d48988d111941735,3 Baldwin St,"Queen's Park, Ontario Provincial Government",43.66,-79.39,Downtown Toronto
4bc0c71b74a9a5935fa6d0f6,Tim Hortons,43.6610382,-79.3937966,Coffee Shop,4bf58dd8d48988d1e0931735,1 King's College Circle (in the Medical Science Building),"Queen's Park, Ontario Provincial Government",43.66,-79.39,Downtown Toronto
4d385c97e6bdf04d924d63b4,Starbucks,43.660887,-79.39372,Coffee Shop,4bf58dd8d48988d1e0931735,1 King's College Circle (Medical Sciences Building),"Queen's Park, Ontario Provincial Government",43.66,-79.39,Downtown Toronto
556df351498eebb865351b61,Yummy Zone,43.662755747929545,-79.38659907574278,Bubble Tea Shop,52e81612bcbc57f1066b7a0c,895 Bay Street (Breadalbane),"Queen's Park, Ontario Provincial Government",43.66,-79.39,Downtown Toronto
4b7c2a57f964a5208c812fe3,Tim Hortons,43.6594149,-79.3912214,Coffee Shop,4bf58dd8d48988d1e0931735,700 University Ave (Ontario Power Generation Building),"Queen's Park, Ontario Provincial Government",43.66,-79.39,Downtown Toronto
4bc867cc6501c9b6cf024029,Tim Hortons,43.6575525,-79.3885343,Coffee Shop,4bf58dd8d48988d1e0931735,610 University Ave (Princess Margaret Hospital),"Queen's Park, Ontario Provincial Government",43.66,-79.39,Downtown Toronto
4ad4c062f964a520f9f720e3,Convocation Hall,43.66082829233904,-79.39524545662506,College Auditorium,4bf58dd8d48988d1af941735,31 King's College Cir. (University of Toronto),"Queen's Park, Ontario Provincial Government",43.66,-79.39,Downtown Toronto
4cc5e76091413704e955cc55,SUDS,43.65988035580764,-79.39471219966201,Bar,4bf58dd8d48988d116941735,10 King's College Rd (University of Toronto),"Queen's Park, Ontario Provincial Government",43.66,-79.39,Downtown Toronto
53111ca0498e32f2cceece5e,Bread and Bowl,43.656417411563346,-79.39051367258449,Sandwich Place,4bf58dd8d48988d1c5941735,2 Murray Street (Elm St),"Queen's Park, Ontario Provincial Government",43.66,-79.39,Downtown Toronto
54fb2f8d498e724a96c14f91,Tosto,43.661198,-79.386414,Italian Restaurant,4bf58dd8d48988d110941735,800 Bay St,"Queen's Park, Ontario Provincial Government",43.66,-79.39,Downtown Toronto
4bec073a6295c9b6815c8808,Tim Hortons,43.659695,-79.388706,Coffee Shop,4bf58dd8d48988d1e0931735,"101 College St, Unit 14 (MaRS)","Queen's Park, Ontario Provincial Government",43.66,-79.39,Downtown Toronto
4c0f812d98102d7f8a44e506,Tim Hortons,43.6589062,-79.3886961,Coffee Shop,4bf58dd8d48988d1e0931735,657 University Ave (Toronto General Hospital),"Queen's Park, Ontario Provincial Government",43.66,-79.39,Downtown Toronto
4c408e62520fa5939738c8ac,Quick Pita,43.65879751594094,-79.39513763494665,Falafel Restaurant,4bf58dd8d48988d10b941735,Toronto ON M5T 1P9,"Queen's Park, Ontario Provincial Government",43.66,-79.39,Downtown Toronto
4b9e7bbdf964a520e9e736e3,Second Cup,43.660721671691235,-79.38630837243234,Coffee Shop,4bf58dd8d48988d1e0931735,800 Bay St (Metro Credit Union),"Queen's Park, Ontario Provincial Government",43.66,-79.39,Downtown Toronto
529d18c911d255c5406ddd88,Pizzeria Via Mercanti,43.65679034740686,-79.38631071713952,Italian Restaurant,4bf58dd8d48988d110941735,87 Elm St (Btwn University Ave & Elizabeth St),"Queen's Park, Ontario Provincial Government",43.66,-79.39,Downtown Toronto
4cdbe3622db58eece01513a9,Queen’s Park Veterans' Memorial,43.66145766668674,-79.39133285798712,Monument / Landmark,4bf58dd8d48988d12d941735,University Ave (College Ave),"Queen's Park, Ontario Provincial Government",43.66,-79.39,Downtown Toronto
4c45cd36f0bdd13a8371cbcc,Teriyaki Experience,43.65988429565999,-79.38787892460823,Restaurant,4bf58dd8d48988d1c4941735,101 College Street,"Queen's Park, Ontario Provincial Government",43.66,-79.39,Downtown Toronto
4da5bd6e0437667c9b327871,Anoush,43.66003388545557,-79.38830898321906,Middle Eastern Restaurant,4bf58dd8d48988d115941735,Mars,"Queen's Park, Ontario Provincial Government",43.66,-79.39,Downtown Toronto
4b869576f964a520ac9031e3,Second Cup,43.663794067009306,-79.38692346576333,Coffee Shop,4bf58dd8d48988d1e0931735,900 Bay Street,"Queen's Park, Ontario Provincial Government",43.66,-79.39,Downtown Toronto
4b043153f964a520f85122e3,Thai Express,43.655835,-79.38813,Restaurant,4bf58dd8d48988d1c4941735,505 University Ave,"Queen's Park, Ontario Provincial Government",43.66,-79.39,Downtown Toronto
541acbbe498ebf9d61765ff9,Presse Cafe,43.66257675207432,-79.38633959907268,Café,4bf58dd8d48988d16d941735,Toronto ON,"Queen's Park, Ontario Provincial Government",43.66,-79.39,Downtown Toronto
4f246e82e4b05d3ba151f6c9,The Saj,43.65878737223263,-79.39520834668025,Mediterranean Restaurant,4bf58dd8d48988d1c0941735,199 College St (at Beverley St),"Queen's Park, Ontario Provincial Government",43.66,-79.39,Downtown Toronto
552db032498e660b6506230c,Mo'Ramyun,43.65614757920083,-79.39228230349781,Korean Restaurant,4bf58dd8d48988d113941735,1 Baldwin St. (at Elm St.),"Queen's Park, Ontario Provincial Government",43.66,-79.39,Downtown Toronto
4ee0c52fd3e38ddb2afea856,McDonald's,43.671091716525275,-79.52665125587696,Fast Food Restaurant,4bf58dd8d48988d16e941735,Port Hope ON,"Islington Avenue, Humber Valley Village",43.67,-79.53,Etobicoke
5561eacb498e09ff53b397ad,Upper Rouge Trail,43.809988,-79.186147,Trail,4bf58dd8d48988d159941735,Canada,"Malvern, Rouge",43.81,-79.19,Scarborough
5006bb1be4b044d21438e02d,Rippleton Park,43.74087097344082,-79.35975873873495,Park,4bf58dd8d48988d163941735,North York ON,Don Mills,43.74,-79.36,North York
4ffed1d6e4b0a816c6ba9320,Talwood Park,43.7388964720403,-79.35455584048472,Park,4bf58dd8d48988d163941735,North York ON,Don Mills,43.74,-79.36,North York
4b7aa47ef964a520fa342fe3,East York Gymnastics,43.710654,-79.309279,Gym / Fitness Center,4bf58dd8d48988d175941735,6 Dohme Ave,"Parkview Hill, Woodbine Gardens",43.71,-79.31,East York
4b6db61ff964a520b9882ce3,Toronto Climbing Academy,43.709362,-79.315006,Rock Climbing Spot,50328a4b91d4c4b30a586d6b,11 Curity Ave,"Parkview Hill, Woodbine Gardens",43.71,-79.31,East York
5594243c498e123564a4fa94,Muddy York Brewing Co.,43.71236216662408,-79.31201930161387,Brewery,50327c8591d4c4b30a586d5d,22 Cranfield Road,"Parkview Hill, Woodbine Gardens",43.71,-79.31,East York
4c69a3588e7c0f47e629e00f,Peek Freans Cookie Outlet,43.71326033174486,-79.30806318602713,Bakery,4bf58dd8d48988d16a941735,5 Bermondsey Rd (at O'Connor Dr.),"Parkview Hill, Woodbine Gardens",43.71,-79.31,East York
4bd705e07b1876b0f16b8d86,Harvey's,43.71096402126402,-79.30908534280502,Fast Food Restaurant,4bf58dd8d48988d16e941735,1100 O'Connor Drive,"Parkview Hill, Woodbine Gardens",43.71,-79.31,East York
55895716498eaf69c53e1042,TKTO - Toronto Knife Throwing Organization,43.7099660731501,-79.31341111891099,Athletics & Sports,4f4528bc4b90abdf24c9de85,6 Curity Ave (Cranfield Road),"Parkview Hill, Woodbine Gardens",43.71,-79.31,East York
50b63ac8e4b03158df08777b,Nostalgia,43.706832771917064,-79.31178314223835,Café,4bf58dd8d48988d16d941735,Canada,"Parkview Hill, Woodbine Gardens",43.71,-79.31,East York
4c615363832fa593c3bdf1d3,East York Animal Clinic,43.70592051370348,-79.3121958344716,Pet Store,4bf58dd8d48988d100951735,805 O'Connor Drive (St. Clair),"Parkview Hill, Woodbine Gardens",43.71,-79.31,East York
590e0fbfd8096e608dcc8fd4,Rise & Dine Eatery,43.705769,-79.311638,Breakfast Spot,4bf58dd8d48988d143941735,2714 St Clair Ave E,"Parkview Hill, Woodbine Gardens",43.71,-79.31,East York
51755dc7498ece19b7261641,Banh Mi Boys,43.659292,-79.381949,Sandwich Place,4bf58dd8d48988d1c5941735,399 Yonge St. (Gerrard St.),"Garden District, Ryerson",43.66,-79.38,Downtown Toronto
50c90bede4b066a03d8bacfb,Maple Leaf Gardens,43.661893748737334,-79.37960504532634,Historic Site,4deefb944765f83613cdba6e,60 Carlton St. (at Church St.),"Garden District, Ryerson",43.66,-79.38,Downtown Toronto
4b2bd898f964a52042bc24e3,Kinka Izakaya Original,43.66059636632361,-79.37889120754515,Japanese Restaurant,4bf58dd8d48988d111941735,398 Church St (McGill Street),"Garden District, Ryerson",43.66,-79.38,Downtown Toronto
5ba6a28a018cbb003999397a,Cuppa Tea,43.661371,-79.381239,Tea Room,4bf58dd8d48988d1dc931735,20 Carlton Street,"Garden District, Ryerson",43.66,-79.38,Downtown Toronto
560b1653498e1a2dfa4af722,Kinton Ramen,43.660631695006714,-79.37887964897601,Ramen Restaurant,55a59bace4b013909087cb24,396 Church St (McGill Street),"Garden District, Ryerson",43.66,-79.38,Downtown Toronto
5a81ae339deb7d369fa7f146,Hailed Coffee,43.65883296982352,-79.38368351986598,Coffee Shop,4bf58dd8d48988d1e0931735,44 Gerrard St W (Yonge St),"Garden District, Ryerson",43.66,-79.38,Downtown Toronto
4ad887d2f964a520111221e3,Hair Of The Dog,43.66282779855822,-79.37966975971744,Gastropub,4bf58dd8d48988d155941735,425 Church St. (at Wood St.),"Garden District, Ryerson",43.66,-79.38,Downtown Toronto
4ad4c062f964a5200bf820e3,Silver Snail Comics,43.65703137958407,-79.38140310220501,Comic Shop,52f2ab2ebcbc57f1066b8b18,329 Yonge St (at Dundas St E),"Garden District, Ryerson",43.66,-79.38,Downtown Toronto
4aeb5989f964a5203ec121e3,The Yoga Sanctuary,43.661499497597596,-79.38363613350754,Yoga Studio,4bf58dd8d48988d102941735,"2 College St. W, Suite 306 (at Yonge St.)","Garden District, Ryerson",43.66,-79.38,Downtown Toronto
4c8facf91664b1f79c90aa2f,College Park Area,43.659453,-79.383785,Park,4bf58dd8d48988d163941735,College St.,"Garden District, Ryerson",43.66,-79.38,Downtown Toronto
5064c3dde4b07c5a18986283,Five Guys,43.657116518476315,-79.38085267976494,Burger Joint,4bf58dd8d48988d16c941735,329 Yonge Street,"Garden District, Ryerson",43.66,-79.38,Downtown Toronto
56d4d1b3cd1035fe77e1492c,Page One Cafe,43.65777161112601,-79.3760725691681,Café,4bf58dd8d48988d16d941735,106 Mutual St (btwn Dundas & Gould St),"Garden District, Ryerson",43.66,-79.38,Downtown Toronto
5615b6c4498e3c32c67ad78f,Blaze Pizza,43.656518,-79.380015,Pizza Place,4bf58dd8d48988d1ca941735,"10 Dundas Street East, #124","Garden District, Ryerson",43.66,-79.38,Downtown Toronto
57bee570498e009b84719d5e,Black Bear Espresso,43.66143582514135,-79.3814931962942,Coffee Shop,4bf58dd8d48988d1e0931735,25 Carlton St,"Garden District, Ryerson",43.66,-79.38,Downtown Toronto
4bc1db6e2a89ef3beec8f288,Ryerson Athletics Centre,43.65843443942876,-79.37929610991361,College Rec Center,4bf58dd8d48988d1a9941735,40 Gould St. (btwn Victoria & Church),"Garden District, Ryerson",43.66,-79.38,Downtown Toronto
4ab2b0b9f964a520e56b20e3,The Queen and Beaver Public House,43.65747228208784,-79.38352412327917,Gastropub,4bf58dd8d48988d155941735,35 Elm St. (at Bay St.),"Garden District, Ryerson",43.66,-79.38,Downtown Toronto
522e017f11d203fd9df25f43,Hard Candy Fitness,43.659556180497816,-79.38244024080487,Gym / Fitness Center,4bf58dd8d48988d175941735,382 Yonge St (Yonge & Gerrard),"Garden District, Ryerson",43.66,-79.38,Downtown Toronto
4c3069603896e21eb882e590,Golden Diner,43.66234167901005,-79.37743376144903,Diner,4bf58dd8d48988d147941735,105 Carlton St (Jarvis St),"Garden District, Ryerson",43.66,-79.38,Downtown Toronto
4cd2e74d3e0c8cfa87971a12,Oakham Café,43.658077944767534,-79.37831497990125,Café,4bf58dd8d48988d16d941735,55 Gould St. (Chruch),"Garden District, Ryerson",43.66,-79.38,Downtown Toronto
4b32a8bdf964a5202d1125e3,Barberian's Steak House,43.65775512925926,-79.38217741375935,Steakhouse,4bf58dd8d48988d1cc941735,7 Elm St. (at Yonge St.),"Garden District, Ryerson",43.66,-79.38,Downtown Toronto
511b918be4b00262d6b926b6,Marshalls,43.659308,-79.3824621,Department Store,4bf58dd8d48988d1f6941735,382 Yonge Street (Gerrard St),"Garden District, Ryerson",43.66,-79.38,Downtown Toronto
5707027d498edd885aea5dce,Hangry Burger,43.66070999694819,-79.38283826775837,Burger Joint,4bf58dd8d48988d16c941735,435 Yonge Street,"Garden District, Ryerson",43.66,-79.38,Downtown Toronto
57eda381498ebe0e6ef40972,UNIQLO ユニクロ,43.65591027779457,-79.38064099181345,Clothing Store,4bf58dd8d48988d103951735,220 Yonge St (at Dundas St W),"Garden District, Ryerson",43.66,-79.38,Downtown Toronto
5a55078bda5ede6ed9d73a62,Tokyo Smoke,43.65723,-79.38087,Coffee Shop,4bf58dd8d48988d1e0931735,333 Yonge Street,"Garden District, Ryerson",43.66,-79.38,Downtown Toronto
4fb13c20e4b011e6f93513c0,Balzac's Coffee,43.65785440672277,-79.37919981155157,Coffee Shop,4bf58dd8d48988d1e0931735,122 Bond Street (at Gould St.),"Garden District, Ryerson",43.66,-79.38,Downtown Toronto
506a2591e4b0961239b8c825,The Black Canary Espresso Bar,43.65702925121356,-79.38138512728051,Café,4bf58dd8d48988d16d941735,329 Yonge St. (inside Silver Snail),"Garden District, Ryerson",43.66,-79.38,Downtown Toronto
55a9bbf9498e00ffd7f4c71f,Burrito Boyz,43.656265264409015,-79.37834318376771,Burrito Place,4bf58dd8d48988d153941735,74 Dundas St E,"Garden District, Ryerson",43.66,-79.38,Downtown Toronto
502ad662e4b0cc2719059805,Ryerson Image Centre,43.65752337161094,-79.37945958709186,Art Gallery,4bf58dd8d48988d1e2931735,33 Gould St. (at Bond St.),"Garden District, Ryerson",43.66,-79.38,Downtown Toronto
4ad4c064f964a5208ff820e3,Elmwood Spa,43.6577592341367,-79.38258620521141,Spa,4bf58dd8d48988d1ed941735,18 Elm St,"Garden District, Ryerson",43.66,-79.38,Downtown Toronto
539c6f13498e06f4cc765165,The Elm Tree Restaurant,43.65739749535259,-79.38376054171513,Modern European Restaurant,52e81612bcbc57f1066b79f9,43 Elm St (Bay),"Garden District, Ryerson",43.66,-79.38,Downtown Toronto
4b8c0fa3f964a52085bb32e3,Lebanon Express,43.66099058425057,-79.38297576948105,Falafel Restaurant,4bf58dd8d48988d10b941735,439 Yonge Street (College),"Garden District, Ryerson",43.66,-79.38,Downtown Toronto
4ad8cd16f964a520c91421e3,Yonge-Dundas Square,43.65605389742188,-79.38049504264389,Plaza,4bf58dd8d48988d164941735,1 Dundas St E (at Yonge St),"Garden District, Ryerson",43.66,-79.38,Downtown Toronto
52f6816f11d24a43115dc834,Scaddabush Italian Kitchen & Bar,43.658920292028725,-79.38289105381784,Italian Restaurant,4bf58dd8d48988d110941735,"382 Yonge Street, Unit #7 (Gerrard)","Garden District, Ryerson",43.66,-79.38,Downtown Toronto
4ad4cba2f964a520d1fb20e3,Panago,43.65825817735338,-79.38431282558368,Pizza Place,4bf58dd8d48988d1ca941735,44 Gerrard St. W (at Bay St.),"Garden District, Ryerson",43.66,-79.38,Downtown Toronto
4eecbef20aaf1d45b10cdddb,Bulk Barn,43.661339682592825,-79.38268765156145,Grocery Store,4bf58dd8d48988d118951735,2 Carlton St. (at Yonge St.),"Garden District, Ryerson",43.66,-79.38,Downtown Toronto
537d4d6d498ec171ba22e7fe,Jimmy's Coffee,43.65842123574496,-79.38561319551111,Coffee Shop,4bf58dd8d48988d1e0931735,82 Gerrard Street W (Gerrard & LaPlante),"Garden District, Ryerson",43.66,-79.38,Downtown Toronto
5db70a0c306d6b000861ac9f,NEO COFFEE BAR,43.66013,-79.38583,Coffee Shop,4bf58dd8d48988d1e0931735,770 Bay Street Unit 3,"Garden District, Ryerson",43.66,-79.38,Downtown Toronto
4ad4c061f964a52095f720e3,Salad King,43.65760101432665,-79.38161963017174,Thai Restaurant,4bf58dd8d48988d149941735,340 Yonge St (at Gould St),"Garden District, Ryerson",43.66,-79.38,Downtown Toronto
4bcb2a13fb84c9b68b391e3e,Canadian National Ballet School,43.663681,-79.377237,Dance Studio,4bf58dd8d48988d134941735,400 Jarvis St (btwn Carlton & Maitland St.),"Garden District, Ryerson",43.66,-79.38,Downtown Toronto
50c20a89e4b02803a189384b,FUEL+,43.66439936324463,-79.38042718414235,Juice Bar,4bf58dd8d48988d112941735,471 Church St. (btwn Alexander & Maitland St.),"Garden District, Ryerson",43.66,-79.38,Downtown Toronto
533d629b498e7452f4a50bda,North of Brooklyn Pizzeria,43.664383604568975,-79.38037571983865,Pizza Place,4bf58dd8d48988d1ca941735,469 Church St. (at Wellesley St.),"Garden District, Ryerson",43.66,-79.38,Downtown Toronto
509e9ef6e4b0ab175389a6c5,Hokkaido Ramen Santouka らーめん山頭火,43.65643520293576,-79.37758637997793,Ramen Restaurant,55a59bace4b013909087cb24,91 Dundas St E (at Church St),"Garden District, Ryerson",43.66,-79.38,Downtown Toronto
523c961b11d2076f0e5dc8f4,Starbucks,43.659509,-79.382132,Coffee Shop,4bf58dd8d48988d1e0931735,407 Yonge St (at Gerrard St.),"Garden District, Ryerson",43.66,-79.38,Downtown Toronto
4c24fab0a852c928070de46c,Allan Gardens Conservatory,43.661915451854576,-79.3746870789171,Garden,4bf58dd8d48988d15a941735,19 Horticulural Ave (Allan Gardens),"Garden District, Ryerson",43.66,-79.38,Downtown Toronto
557231e3498e540f05f3083c,Tim Hortons,43.658569999999976,-79.38512341104502,Coffee Shop,4bf58dd8d48988d1e0931735,70 Gerrard St West (Bay St),"Garden District, Ryerson",43.66,-79.38,Downtown Toronto
568dcf20498e1601e2f8b87f,Ali Baba's - Yonge north of Dundas,43.6578670583589,-79.3811759912352,Middle Eastern Restaurant,4bf58dd8d48988d115941735,357 Yonge Street (North of Dundas),"Garden District, Ryerson",43.66,-79.38,Downtown Toronto
4adc9148f964a520512d21e3,Chipotle Mexican Grill,43.65686,-79.38091,Mexican Restaurant,4bf58dd8d48988d1c1941735,"323 Yonge St, Unit 114 (Yonge & Dundas)","Garden District, Ryerson",43.66,-79.38,Downtown Toronto
4b654efaf964a520aeec2ae3,Black Eagle,43.66408473971554,-79.38009823456886,Gay Bar,4bf58dd8d48988d1d8941735,457 Church St (Alexander),"Garden District, Ryerson",43.66,-79.38,Downtown Toronto
4b744336f964a520d8d02de3,Somethin' 2 Talk About,43.65839479027968,-79.38533765920816,Middle Eastern Restaurant,4bf58dd8d48988d115941735,78 Gerrard St W,"Garden District, Ryerson",43.66,-79.38,Downtown Toronto
599cb69eb5461876d54ab713,Katsuya,43.65986035759321,-79.37878806223506,Japanese Restaurant,4bf58dd8d48988d111941735,66 Gerrard St E,"Garden District, Ryerson",43.66,-79.38,Downtown Toronto
514cc159e4b0e4f73af4eced,Jazz Bistro,43.65567828473835,-79.37927565514764,Music Venue,4bf58dd8d48988d1e5931735,251 Victoria St (btwn Dundas St. E & Shuter St.),"Garden District, Ryerson",43.66,-79.38,Downtown Toronto
4ed6319130f813e77a9f8a3b,Joe Fresh,43.661956,-79.38016,Clothing Store,4bf58dd8d48988d103951735,60 Carlton St (at Church St.),"Garden District, Ryerson",43.66,-79.38,Downtown Toronto
4ad5de88f964a520ca0321e3,Starbucks,43.661527,-79.383411,Coffee Shop,4bf58dd8d48988d1e0931735,450 Yonge St (at College St.),"Garden District, Ryerson",43.66,-79.38,Downtown Toronto
4c193c77838020a1e768e561,Kawa Sushi,43.66389438938988,-79.38021009464505,Japanese Restaurant,4bf58dd8d48988d111941735,451 Church St.,"Garden District, Ryerson",43.66,-79.38,Downtown Toronto
4ed6891eb8f7304633d56a7a,LCBO,43.66203855690188,-79.37949019078559,Liquor Store,4bf58dd8d48988d186941735,60 Carlton St. (at Church St.),"Garden District, Ryerson",43.66,-79.38,Downtown Toronto
4ad7a7b6f964a520520d21e3,Buddies In Bad Times Theatre,43.663058539371825,-79.38344927771267,Nightclub,4bf58dd8d48988d11f941735,12 Alexander St (Yonge St),"Garden District, Ryerson",43.66,-79.38,Downtown Toronto
536eac35498ee72591577301,California Sandwiches,43.660824989345386,-79.38288750546259,Sandwich Place,4bf58dd8d48988d1c5941735,435 Yonge St (College St),"Garden District, Ryerson",43.66,-79.38,Downtown Toronto
54d0104f498ea0dc2e73a187,The Saint James Hotel,43.659398011456965,-79.38093249633705,Hotel,4bf58dd8d48988d1fa931735,26 Gerard St E (Yonge),"Garden District, Ryerson",43.66,-79.38,Downtown Toronto
525ebec6498e33c5702cd7d3,Reds Midtown Tavern,43.659128249470015,-79.38226565563255,Wine Bar,4bf58dd8d48988d123941735,"382 Yonge Street, Unit #6 (Gerrard St W)","Garden District, Ryerson",43.66,-79.38,Downtown Toronto
5446f60b498e4a38ccda6bc8,The Men's Room,43.664445596525944,-79.38006704821788,Men's Store,4bf58dd8d48988d106951735,465 Church St (Church @ Maitland),"Garden District, Ryerson",43.66,-79.38,Downtown Toronto
56bdf21b498ee5ac0b6f6682,306 Yonge Street - Jordan Store,43.65649471160899,-79.38101531134684,Sporting Goods Shop,4bf58dd8d48988d1f2941735,306 Yonge Street (Dundas W),"Garden District, Ryerson",43.66,-79.38,Downtown Toronto
566387f1498e4003e174ef72,The Captain's Boil,43.662374914979594,-79.38353475807129,Seafood Restaurant,4bf58dd8d48988d1ce941735,476 Yonge St (at Granville St),"Garden District, Ryerson",43.66,-79.38,Downtown Toronto
4ad9f408f964a5204a1c21e3,Cora Breakfast & Lunch,43.66139369623902,-79.38131959688991,Breakfast Spot,4bf58dd8d48988d143941735,27 Carlton St (btwn Yonge St & Church St),"Garden District, Ryerson",43.66,-79.38,Downtown Toronto
4adbbae6f964a520402a21e3,Cineplex Cinemas,43.65612555948613,-79.38039005666784,Movie Theater,4bf58dd8d48988d17f941735,10 Dundas St E (at Yonge St),"Garden District, Ryerson",43.66,-79.38,Downtown Toronto
4b23d2b2f964a520795a24e3,Dollarama,43.66068,-79.38468,Discount Store,52dea92d3cf9994f4e043dbb,"777 Bay St, College Park (at College St. W)","Garden District, Ryerson",43.66,-79.38,Downtown Toronto
4d927b8352ed224b27d008ac,Burrito Bandidos,43.662962178169344,-79.38395554190546,Burrito Place,4bf58dd8d48988d153941735,496 Yonge St. (at Grosvenor St.),"Garden District, Ryerson",43.66,-79.38,Downtown Toronto
4af1b6e5f964a5206be221e3,W Burger Bar,43.66133100835633,-79.3835570768382,Burger Joint,4bf58dd8d48988d16c941735,10 College St (at Yonge St.),"Garden District, Ryerson",43.66,-79.38,Downtown Toronto
4ae1296df964a5208c8521e3,Fran's,43.661255320138636,-79.38389304122866,Diner,4bf58dd8d48988d147941735,20 College St (at Yonge St),"Garden District, Ryerson",43.66,-79.38,Downtown Toronto
512ce732e4b0aa0ac5f50f05,Bubble Bath & Spa,43.65904951746615,-79.38534357912432,Spa,4bf58dd8d48988d1ed941735,736 Bay Street (Bay & Hayter),"Garden District, Ryerson",43.66,-79.38,Downtown Toronto
5a62412b1108ba191da5ba06,KAKA,43.65745745164475,-79.38419169987876,Japanese Restaurant,4bf58dd8d48988d111941735,655 Bay Street (( Bay st & Elm st)),"Garden District, Ryerson",43.66,-79.38,Downtown Toronto
5a43c3ddacb00b66ac2ee7d8,Samsung Experience Store (Eaton Centre),43.65564777812532,-79.3810108074576,Electronics Store,4bf58dd8d48988d122951735,Toronto Eaton Centre,"Garden District, Ryerson",43.66,-79.38,Downtown Toronto
50a3dc33e4b07d69fbfe80ee,Bed Bath & Beyond,43.6596432,-79.3827044,Furniture / Home Store,4bf58dd8d48988d1f8941735,382 Yonge St (Gerrard St. E),"Garden District, Ryerson",43.66,-79.38,Downtown Toronto
59bd8286b0405605d8d13ea6,Coco Fresh Tea & Juice,43.65865989038909,-79.38204032226336,Bubble Tea Shop,52e81612bcbc57f1066b7a0c,372 Yonge Street #2 (Yonge & Gerrard),"Garden District, Ryerson",43.66,-79.38,Downtown Toronto
52423fb211d22dbd0eea431b,Kintaro,43.664151602498634,-79.38026409399562,Sake Bar,4bf58dd8d48988d11c941735,459 Church Street (Maitland),"Garden District, Ryerson",43.66,-79.38,Downtown Toronto
4ad88725f964a5200d1221e3,Woody's and Sailor,43.664389684023526,-79.38036131100687,Gay Bar,4bf58dd8d48988d1d8941735,465-467 Church St.,"Garden District, Ryerson",43.66,-79.38,Downtown Toronto
4ae201e1f964a520bb8921e3,Wendy’s,43.662820073147046,-79.38337917323224,Fast Food Restaurant,4bf58dd8d48988d16e941735,475 Yonge Street (at Alexander St.),"Garden District, Ryerson",43.66,-79.38,Downtown Toronto
4adf8077f964a5202d7b21e3,Kabul Express,43.65669146835466,-79.37664313658586,Middle Eastern Restaurant,4bf58dd8d48988d115941735,126 Dundas Street East,"Garden District, Ryerson",43.66,-79.38,Downtown Toronto
5771c4be498e6c9fa7babc01,Bubble Republic Tea House 奶茶黨部,43.656707495984975,-79.38416470657434,Bubble Tea Shop,52e81612bcbc57f1066b7a0c,637B Bay St,"Garden District, Ryerson",43.66,-79.38,Downtown Toronto
4b8bf257f964a520fcb332e3,freshii,43.66128623053018,-79.38396405932683,Salad Place,4bf58dd8d48988d1bd941735,23 College Street (btwn Yonge & Bay),"Garden District, Ryerson",43.66,-79.38,Downtown Toronto
4ad7929cf964a520500c21e3,The Senator Restaurant,43.65564091455335,-79.37919882575557,Diner,4bf58dd8d48988d147941735,249 Victoria Street (btwn Dundas St E and Shuter St),"Garden District, Ryerson",43.66,-79.38,Downtown Toronto
4d1cdda5d2a3a090cbd26772,Lake Devo,43.6569936860937,-79.37689788366988,Lake,4bf58dd8d48988d161941735,Victoria St. (at Gould St.),"Garden District, Ryerson",43.66,-79.38,Downtown Toronto
4afcc52df964a520b82522e3,Donatello Restaurant,43.657489310288014,-79.38360495100461,Italian Restaurant,4bf58dd8d48988d110941735,37 Elm St. (at Bay St.),"Garden District, Ryerson",43.66,-79.38,Downtown Toronto
4c054c04f56c2d7ffe711f66,Shoppers Drug Mart,43.658475,-79.384868,Pharmacy,4bf58dd8d48988d10f951735,700 Bay St (Gerrard Street),"Garden District, Ryerson",43.66,-79.38,Downtown Toronto
4bb7ed2fb35776b0116ac801,Pita Way,43.661512057192034,-79.3810065733131,Falafel Restaurant,4bf58dd8d48988d10b941735,40 Carlton St,"Garden District, Ryerson",43.66,-79.38,Downtown Toronto
4c66e62119f3c9b6493fa1ff,Oasis Aqua Lounge,43.66197612790881,-79.377681165469,Lounge,4bf58dd8d48988d121941735,231 Mutual Drive (Carlton),"Garden District, Ryerson",43.66,-79.38,Downtown Toronto
4d077daee350b60c3bbb9242,Starbucks,43.65907956058055,-79.38056191501433,Coffee Shop,4bf58dd8d48988d1e0931735,350 Victoria St. (in Ryerson Podium Building),"Garden District, Ryerson",43.66,-79.38,Downtown Toronto
4ae1b52bf964a520dd8621e3,Daily Sushi,43.66138539281109,-79.38157955833417,Sushi Restaurant,4bf58dd8d48988d1d2941735,20 Carlton St. (Yonge),"Garden District, Ryerson",43.66,-79.38,Downtown Toronto
4c2b8fd657a9c9b6c31bf667,Magic Lantern: Carlton Cinema,43.66144452110627,-79.38151301610712,Movie Theater,4bf58dd8d48988d17f941735,20 Carlton St (at Yonge St),"Garden District, Ryerson",43.66,-79.38,Downtown Toronto
4df909dfe4cd2129701c0690,JOEY Eaton Centre,43.6560936540828,-79.38187792357716,New American Restaurant,4bf58dd8d48988d157941735,1 Dundas St W,"Garden District, Ryerson",43.66,-79.38,Downtown Toronto
4b296c07f964a5209c9e24e3,Darvish,43.66340728021761,-79.38392863889676,Middle Eastern Restaurant,4bf58dd8d48988d115941735,508 Yonge St. (Btwn Maitland St. & Alexander St.),"Garden District, Ryerson",43.66,-79.38,Downtown Toronto
58e91d60e0adac258fcea481,GB Hand-Pulled Noodles,43.65643422548463,-79.3837827356398,Chinese Restaurant,4bf58dd8d48988d145941735,66 Edward Street (Bay Street),"Garden District, Ryerson",43.66,-79.38,Downtown Toronto
4c302ae47cc0c9b6e90ded9a,Boutique Bar,43.664219464355675,-79.3804123393745,Gay Bar,4bf58dd8d48988d1d8941735,506 Church St (btwn Maitland & Alexander),"Garden District, Ryerson",43.66,-79.38,Downtown Toronto
4bdf1c4bffdec92826c0eaa1,Booster Juice,43.65631796,-79.38276487,Juice Bar,4bf58dd8d48988d112941735,"20 Dundas Street West, Unit #F07 (btwn Yonge & Bay)","Garden District, Ryerson",43.66,-79.38,Downtown Toronto
4c4e2474f53d0f47f18b13a6,Ethiopiques,43.65651274304155,-79.377077748846,Ethiopian Restaurant,4bf58dd8d48988d10a941735,227 Church St. (at Dundas St. E),"Garden District, Ryerson",43.66,-79.38,Downtown Toronto
4b56336cf964a520070528e3,Shoppers Drug Mart,43.661799,-79.38324,Pharmacy,4bf58dd8d48988d10f951735,465 Yonge St (at College St.),"Garden District, Ryerson",43.66,-79.38,Downtown Toronto
4b00d0a0f964a520364122e3,Pita Land,43.66025329859701,-79.37710715521973,Falafel Restaurant,4bf58dd8d48988d10b941735,102 Gerrard Street East (Jarvis Street),"Garden District, Ryerson",43.66,-79.38,Downtown Toronto
4ad9ffbbf964a520091d21e3,Jack Astor's Bar & Grill,43.65601939992059,-79.38032551379719,Restaurant,4bf58dd8d48988d1c4941735,10 Dundas St. E (at Yonge St.),"Garden District, Ryerson",43.66,-79.38,Downtown Toronto
4b1b25f6f964a520dcf823e3,Spa Excess,43.66225560735585,-79.37733708431908,Spa,4bf58dd8d48988d1ed941735,105 Carlton St (Jarvis),"Garden District, Ryerson",43.66,-79.38,Downtown Toronto
4d75c2c58d7e236a805dae28,Holiday Inn Toronto Downtown Centre,43.66177921156988,-79.38104715459633,Hotel,4bf58dd8d48988d1fa931735,30 Carlton Street (at Yonge St.),"Garden District, Ryerson",43.66,-79.38,Downtown Toronto
4bddd88f0ee3a593d7e12eb0,Ryerson Theatre,43.65941278506566,-79.37999674976807,Movie Theater,4bf58dd8d48988d17f941735,"43 Gerrard St. E, KHN-162 (btwn Yonge & Church)","Garden District, Ryerson",43.66,-79.38,Downtown Toronto
4b9ed4aff964a520f30437e3,Dairy Queen,43.7100679,-79.4534411,Ice Cream Shop,4bf58dd8d48988d1c9941735,2957 Dufferin St,Glencairn,43.71,-79.45,North York
4d557ee1611aa35d9ab23539,Columbus Colombian Bakery (Panaderia Colombiana),43.709172692546765,-79.45333079398473,Latin American Restaurant,4bf58dd8d48988d1be941735,2931 Dufferin Street,Glencairn,43.71,-79.45,North York
4d7e2738564b8cfadb0bec64,Lady York Foods,43.709445370032775,-79.45297906087649,Grocery Store,4bf58dd8d48988d118951735,2939 Dufferin St,Glencairn,43.71,-79.45,North York
4fca732be4b07c8e3e198c27,Miyako Sushi Restaurant,43.709111,-79.44393,Japanese Restaurant,4bf58dd8d48988d111941735,572 Marlee Ave (at Glencairn Ave),Glencairn,43.71,-79.45,North York
4adc92e8f964a5206e2d21e3,Camarra's Pizzeria & Restaurant,43.708329,-79.453488,Pizza Place,4bf58dd8d48988d1ca941735,2899 Dufferin St,Glencairn,43.71,-79.45,North York
4cc83b785b7aa143e825347d,Petro-Canada,43.707186,-79.453231,Gas Station,4bf58dd8d48988d113951735,2863 Dufferin St,Glencairn,43.71,-79.45,North York
4bd2192477b29c74cffb8d82,Darosa,43.706969836937915,-79.453120889328,Mediterranean Restaurant,4bf58dd8d48988d1c0941735,2853 Dufferin Street (Glencairn),Glencairn,43.71,-79.45,North York
4ca6206997c8a1cdd33b6da5,Kokoro Sushi,43.7090306314996,-79.44405331675999,Sushi Restaurant,4bf58dd8d48988d1d2941735,572 Marlee Ave. (at Glencairn Ave.),Glencairn,43.71,-79.45,North York
5002fc00e4b052458263a53a,Subway,43.64859448039206,-79.54869374504284,Sandwich Place,4bf58dd8d48988d1c5941735,316 Burnhamthorpe Road (Martin Grove Rd.),"West Deane Park, Princess Gardens, Martin Grove, Islington, Cloverdale",43.65,-79.55,Etobicoke
4af601f3f964a5201f0022e3,Pizza Pizza,43.648754693274114,-79.54872638036836,Pizza Place,4bf58dd8d48988d1ca941735,316 BURNHAMTHORPE ROAD,"West Deane Park, Princess Gardens, Martin Grove, Islington, Cloverdale",43.65,-79.55,Etobicoke
4b3e3d4ef964a520ff9925e3,Pizza Nova,43.649092,-79.549,Pizza Place,4bf58dd8d48988d1ca941735,129 Martin Grove (at Burnhamthorpe),"West Deane Park, Princess Gardens, Martin Grove, Islington, Cloverdale",43.65,-79.55,Etobicoke
4ca9230897c8a1cdce2d8ca5,Far East Chinese Food,43.649243794114106,-79.54886564950132,Chinese Restaurant,4bf58dd8d48988d145941735,137 Martin Grove Road (Burnhamthorpe Road),"West Deane Park, Princess Gardens, Martin Grove, Islington, Cloverdale",43.65,-79.55,Etobicoke
4eac36d40aafb00bd94bd5f8,Victorian Garden Tea Room,43.648142634644344,-79.54912360544377,Tea Room,4bf58dd8d48988d1dc931735,313 Burnhamthorpe Rd (Martin Grove),"West Deane Park, Princess Gardens, Martin Grove, Islington, Cloverdale",43.65,-79.55,Etobicoke
5a0bd5d36cf01a0b5e07b6c2,My Daily Grind,43.6501403,-79.54566030000001,Coffee Shop,4bf58dd8d48988d1e0931735,4 Lorraine Gardens,"West Deane Park, Princess Gardens, Martin Grove, Islington, Cloverdale",43.65,-79.55,Etobicoke
56358741498eaa6c5d806296,Ratti`s Personal Training,43.646899,-79.54667,Gym / Fitness Center,4bf58dd8d48988d175941735,107 Wedgewood Dr,"West Deane Park, Princess Gardens, Martin Grove, Islington, Cloverdale",43.65,-79.55,Etobicoke
5898005b76b8b25854c36663,Affordable Toronto Movers,43.787918740889744,-79.16297673924419,Moving Target,4f2a23984b9023bd5841ed2c,6262 kingston rd,"Rouge Hill, Port Union, Highland Creek",43.79,-79.16,Scarborough
4b609d8df964a52068f029e3,Tim Hortons,43.7270816,-79.327143,Coffee Shop,4bf58dd8d48988d1e0931735,150 Wynford Dr (at Wynford Heights Cres.),Don Mills,43.73,-79.33,North York
4e1b5de5e4cdb1407393ed21,Dallimore Cir Gym,43.730705650693224,-79.3323164909998,Gym,4bf58dd8d48988d176941735,120 Dallimore Cir (Green belt),Don Mills,43.73,-79.33,North York
4f980d62e4b04b2e5fad8910,Concorde Park Condo Gym,43.73083247207351,-79.32723190645657,Gym,4bf58dd8d48988d176941735,5 (Concorde Place),Don Mills,43.73,-79.33,North York
50bb8df0e4b0b45a1c5c0394,DVP at Wynford Dr.,43.72759528460237,-79.33055885670686,Intersection,52f2ab2ebcbc57f1066b8b4c,Don Valley Parkway (at Wynford Dr.),Don Mills,43.73,-79.33,North York
4dc3113945dd26455234a02a,Moccasin Trail Park,43.73129679204527,-79.33411541918686,Park,4bf58dd8d48988d163941735,Toronto ON,Don Mills,43.73,-79.33,North York
566c2656498e9a9ccc484ba7,Hollandaise Diner,43.68652710817421,-79.3088972568512,Breakfast Spot,4bf58dd8d48988d143941735,2231 Danforth Avenue (Patricia Drive),Woodbine Heights,43.69,-79.31,East York
4aedc47ef964a520b8ce21e3,Relish Bar & Grill,43.686280136535885,-79.31097995826282,Bar,4bf58dd8d48988d116941735,2152 Danforth Avenue (Danforth and Cedarvale),Woodbine Heights,43.69,-79.31,East York
4aea1103f964a52004b921e3,Happy Sushi,43.68600806000232,-79.31127520072712,Sushi Restaurant,4bf58dd8d48988d1d2941735,2143 Danforth Ave,Woodbine Heights,43.69,-79.31,East York
4c7e7bdb5af8b60c04979210,Petro-Canada,43.686556,-79.308184,Gas Station,4bf58dd8d48988d113951735,2265 Danforth Ave (at Patricia Dr),Woodbine Heights,43.69,-79.31,East York
4b0b06a7f964a520c32b23e3,Value Village,43.68585413175487,-79.31202694827303,Thrift / Vintage Store,4bf58dd8d48988d101951735,2119 Danforth Avenue (Woodbine),Woodbine Heights,43.69,-79.31,East York
4cc9a7f2bcb1b1f75396108a,John's Hobby Shop,43.68630966732556,-79.3102534137641,Arts & Crafts Store,4bf58dd8d48988d127951735,2188 Danforth Ave (at Cedarvale Ave.),Woodbine Heights,43.69,-79.31,East York
4baeb13bf964a52055cf3be3,Golden Pizza,43.68731255193761,-79.30636294810843,Pizza Place,4bf58dd8d48988d1ca941735,2360 Danforth Ave (at Oak Park Ave),Woodbine Heights,43.69,-79.31,East York
4bebeeb462c0c9284ea6e2d4,Subway Convenience,43.686735,-79.312731,Smoke Shop,4bf58dd8d48988d123951735,1005 Woodbine Avenue (Danforth Avenue),Woodbine Heights,43.69,-79.31,East York
4c868d9c47cc224bf599aa9f,Barknscratch,43.6875608,-79.3055584,Pet Store,4bf58dd8d48988d100951735,"2404 Danforth Ave, Main (Westlake Avenue)",Woodbine Heights,43.69,-79.31,East York
4aef91d3f964a52051d921e3,Woodbine Subway Station,43.6865003419232,-79.31290581822395,Metro Station,4bf58dd8d48988d1fd931735,2072 Danforth Ave (at Woodbine Ave),Woodbine Heights,43.69,-79.31,East York
506db1a9e4b0a3f3b31412f0,Richmond Station,43.65156872562108,-79.37926594000328,American Restaurant,4bf58dd8d48988d14e941735,1 Richmond Street West (Yonge Street),St. James Town,43.65,-79.38,Downtown Toronto
514627d1e4b0dba1b85e9ba8,Dineen Coffee,43.650497,-79.378765,Café,4bf58dd8d48988d16d941735,140 Yonge St (at Temperance St),St. James Town,43.65,-79.38,Downtown Toronto
4ea43642be7ba4918efc5afa,Adelaide Club Toronto,43.64927944291712,-79.38192123284551,Gym / Fitness Center,4bf58dd8d48988d175941735,1 First Canadian Place,St. James Town,43.65,-79.38,Downtown Toronto
501ae947e4b0d11883b910a7,Equinox Bay Street,43.64809974034856,-79.37998869411526,Gym,4bf58dd8d48988d176941735,"199 Bay St (at Commerce Court West, PATH Level)",St. James Town,43.65,-79.38,Downtown Toronto
59cd51c71b0ea516e9e7b3aa,Pilot Coffee Roasters,43.648835391245896,-79.3809358125033,Coffee Shop,4bf58dd8d48988d1e0931735,100 King St W (Bay St),St. James Town,43.65,-79.38,Downtown Toronto
4dcbf219d22d7ffe9d39197e,Brick Street Bakery,43.6488151631615,-79.38060468610949,Bakery,4bf58dd8d48988d16a941735,100 King St W (at Bay St.),St. James Town,43.65,-79.38,Downtown Toronto
50ecb1fae4b0beb13294f0aa,John & Sons Oyster House,43.65065642537144,-79.38161285228475,Seafood Restaurant,4bf58dd8d48988d1ce941735,56 Temperance Street,St. James Town,43.65,-79.38,Downtown Toronto
52138db911d22803b334c641,Mos Mos Coffee,43.64815919753501,-79.37874450467258,Café,4bf58dd8d48988d16d941735,Commerce Court East,St. James Town,43.65,-79.38,Downtown Toronto
4dc842f2e4cd5bc076711d90,GoodLife Fitness Toronto 137 Yonge Street,43.651242,-79.378068,Gym,4bf58dd8d48988d176941735,137 Yonge St (at Richmond St),St. James Town,43.65,-79.38,Downtown Toronto
4b5ca7d8f964a5207c3c29e3,Beerbistro,43.64941904378835,-79.37723726034164,Gastropub,4bf58dd8d48988d155941735,18 King St. E (at Yonge St.),St. James Town,43.65,-79.38,Downtown Toronto
53c524bd498efaeebf73b291,Café Plenty,43.6491179354577,-79.37831288380438,Café,4bf58dd8d48988d16d941735,1 King St W (Yonge St),St. James Town,43.65,-79.38,Downtown Toronto
5214e7c111d2a83379eae21f,The Chase,43.650951982093595,-79.37942201983014,New American Restaurant,4bf58dd8d48988d157941735,10 Temperance St fl 5 (Yonge St),St. James Town,43.65,-79.38,Downtown Toronto
57d0a3fb498e0fb29e892eed,Leña,43.651722,-79.379205,Latin American Restaurant,4bf58dd8d48988d1be941735,176 Yonge St.,St. James Town,43.65,-79.38,Downtown Toronto
55fc571f498ec35023360858,Cactus Club Cafe,43.6495520142626,-79.38167072512041,American Restaurant,4bf58dd8d48988d14e941735,77 Adelaide St W (btwn Bay & York St),St. James Town,43.65,-79.38,Downtown Toronto
4ad4c060f964a5207cf720e3,John & Sons Oyster House,43.65060229830571,-79.38155510682869,Seafood Restaurant,4bf58dd8d48988d1ce941735,56 Temperance St. (at Bay St.),St. James Town,43.65,-79.38,Downtown Toronto
4bd8cde92e6f0f47dcb20808,Hy's Steakhouse,43.649504756476944,-79.38291850488223,Steakhouse,4bf58dd8d48988d1cc941735,120 Adelaide St. W (at York St),St. James Town,43.65,-79.38,Downtown Toronto
59603f86112c6c70931c9401,King Taps,43.648475974183,-79.38205778358744,Gastropub,4bf58dd8d48988d155941735,100 King St W,St. James Town,43.65,-79.38,Downtown Toronto
4ad4c05df964a52059f620e3,Canoe,43.647452066183476,-79.38132001815676,Restaurant,4bf58dd8d48988d1c4941735,66 Wellington St West (at Bay Street),St. James Town,43.65,-79.38,Downtown Toronto
592c5bfb31fd147e47255fb3,Dineen @CommerceCourt,43.648250543365556,-79.38012728220869,Coffee Shop,4bf58dd8d48988d1e0931735,199 Bay St (King Street),St. James Town,43.65,-79.38,Downtown Toronto
559a8f5a498e31f945041245,Maman,43.64830873804684,-79.38225333898805,Café,4bf58dd8d48988d16d941735,100 King St W (btwn Bay & York st),St. James Town,43.65,-79.38,Downtown Toronto
5a8f505eb6eedb5c284a78ad,Walrus Pub & Beer Hall,43.64737470920577,-79.37951515363918,Pub,4bf58dd8d48988d11b941735,187 Bay St (Wellington St W),St. James Town,43.65,-79.38,Downtown Toronto
4af96fbbf964a520c01122e3,One King West Hotel & Residence,43.6491395,-79.3778763,Hotel,4bf58dd8d48988d1fa931735,1 King St W (at Yonge St.),St. James Town,43.65,-79.38,Downtown Toronto
4d3997e1687ca35dbd0081c4,The Gabardine,43.65098801064232,-79.38122513218154,American Restaurant,4bf58dd8d48988d14e941735,372 Bay St (at Richmond St.),St. James Town,43.65,-79.38,Downtown Toronto
5894c1f9266c1121f0a757d1,Boxcar Social Temperance,43.65055725249405,-79.38195634640063,Bar,4bf58dd8d48988d116941735,70 Temperance Street,St. James Town,43.65,-79.38,Downtown Toronto
50e44770e4b0e03a48c0d8a8,Kupfert & Kim (First Canadian Place),43.64854659465186,-79.38162406470161,Gluten-free Restaurant,4c2cd86ed066bed06c3c5209,100 King Street West,St. James Town,43.65,-79.38,Downtown Toronto
4d14cb61bb488cfa1b349ad4,John Allans,43.651446635211904,-79.38135389611388,Salon / Barbershop,4bf58dd8d48988d110951735,"176 Yonge St., 2nd Fl",St. James Town,43.65,-79.38,Downtown Toronto
5a1df4408ad62e3314313889,Craft Beer Market,43.6498722789121,-79.37839828995996,Beer Bar,56aa371ce4b08b9a8d57356c,1 Adelaide St E,St. James Town,43.65,-79.38,Downtown Toronto
4b3d49e6f964a520ad9125e3,Cambridge Suites Toronto,43.65183649475983,-79.37810738045548,Hotel,4bf58dd8d48988d1fa931735,15 Richmond ST E,St. James Town,43.65,-79.38,Downtown Toronto
4ae8c1d8f964a52005b221e3,The National Club,43.64934259283233,-79.3805735731846,Wine Bar,4bf58dd8d48988d123941735,303 Bay Street (at Adelaide),St. James Town,43.65,-79.38,Downtown Toronto
4c1417c182a3c9b676b9fcf8,Portico,43.651855687900124,-79.37805540906518,Restaurant,4bf58dd8d48988d1c4941735,15 Richmond St. E (at Victoria St.),St. James Town,43.65,-79.38,Downtown Toronto
4adf7d0bf964a520127b21e3,The Omni King Edward Hotel,43.64919051601911,-79.37600612640387,Hotel,4bf58dd8d48988d1fa931735,37 King Street East (bwtn Victoria St. and Toronto St.),St. James Town,43.65,-79.38,Downtown Toronto
4b198909f964a52006df23e3,Starbucks,43.650159,-79.377793,Coffee Shop,4bf58dd8d48988d1e0931735,"1 Adelaide St E, Suite 100 (at Yonge St.)",St. James Town,43.65,-79.38,Downtown Toronto
4ad4c062f964a520b5f720e3,Elgin And Winter Garden Theatres,43.653393796019586,-79.3785073962175,Theater,4bf58dd8d48988d137941735,189 Yonge St (btwn Queen St E & Shuter St),St. James Town,43.65,-79.38,Downtown Toronto
4ad4c05ff964a520eff620e3,Design Exchange,43.64797219581623,-79.38010382588462,Art Gallery,4bf58dd8d48988d1e2931735,234 Bay St. (btwn King & Wellington),St. James Town,43.65,-79.38,Downtown Toronto
4ad4c05ef964a520a6f620e3,Nathan Phillips Square,43.65227047322295,-79.38351631164551,Plaza,4bf58dd8d48988d164941735,100 Queen St W (at Bay St),St. James Town,43.65,-79.38,Downtown Toronto
4ad4c05ef964a5208ef620e3,Old City Hall,43.652008800876125,-79.3817442232328,Monument / Landmark,4bf58dd8d48988d12d941735,60 Queen Street West,St. James Town,43.65,-79.38,Downtown Toronto
4ad69511f964a520e40721e3,The Keg Steakhouse + Bar - York Street,43.64998659318569,-79.38410336664538,Restaurant,4bf58dd8d48988d1c4941735,165 York St (btwn Richmond St. & Adelaide St.),St. James Town,43.65,-79.38,Downtown Toronto
4ad4c05cf964a520bbf520e3,Cosmopolitan Toronto Centre Hotel & Spa,43.64906432957466,-79.37759759701125,Hotel,4bf58dd8d48988d1fa931735,8 Colborne St (at Yonge St),St. James Town,43.65,-79.38,Downtown Toronto
528e195b11d2ad1ecaef8c8c,DAVIDsTEA,43.650546552943766,-79.38338493349875,Tea Room,4bf58dd8d48988d1dc931735,R134-120 Adelaide St W,St. James Town,43.65,-79.38,Downtown Toronto
4b114234f964a520637923e3,Pumpernickel's Deli,43.64883150054619,-79.38197006345457,Deli / Bodega,4bf58dd8d48988d146941735,100 King St. W (at First Canadian Place Food Court),St. James Town,43.65,-79.38,Downtown Toronto
4ae7b370f964a5206ead21e3,Petit Four Bakery,43.647743692587085,-79.37958814250598,Sandwich Place,4bf58dd8d48988d1c5941735,"187 Bay St, Commerce Court South, Concourse Level (at Wellington St W)",St. James Town,43.65,-79.38,Downtown Toronto
4ad4c05cf964a52006f620e3,Victoria's Restaurant,43.64929834396347,-79.37643067251867,Restaurant,4bf58dd8d48988d1c4941735,37 King Street East (at Le Meridien King Edward Hotel),St. James Town,43.65,-79.38,Downtown Toronto
54132b3b498ee9ca9332e189,M Square Coffee Co,43.65121797253777,-79.38355459932247,Coffee Shop,4bf58dd8d48988d1e0931735,C24 - 123 Queen St W,St. James Town,43.65,-79.38,Downtown Toronto
4b49183ff964a520a46526e3,Terroni,43.650927,-79.375602,Italian Restaurant,4bf58dd8d48988d110941735,57 Adelaide St. E (at Church St.),St. James Town,43.65,-79.38,Downtown Toronto
597ae286b2958f7e52761fe8,The Adelaide Hotel Toronto,43.6498312,-79.3801639,Hotel,4bf58dd8d48988d1fa931735,325 Bay St,St. James Town,43.65,-79.38,Downtown Toronto
505b8b544c7fd4d07eae01f3,GoodLife Fitness Toronto Street Women's Only,43.6504,-79.3767,Gym,4bf58dd8d48988d176941735,"36 Toronto St, 200 (at Victoria St.)",St. James Town,43.65,-79.38,Downtown Toronto
4ad4c05ef964a520d8f620e3,Hockey Hall Of Fame (Hockey Hall of Fame),43.646974451431056,-79.37732323942681,Museum,4bf58dd8d48988d181941735,30 Yonge St. (at Brookfield Pl.),St. James Town,43.65,-79.38,Downtown Toronto
4fcb97f7e4b00a0e8520b055,Hogtown Smoke,43.64928693557788,-79.37468932637938,Food Truck,4bf58dd8d48988d1cb941735,1959 Queen St E,St. James Town,43.65,-79.38,Downtown Toronto
4b8702fdf964a52055ab31e3,The Cambridge Club,43.65166287812755,-79.38307469732278,Gym,4bf58dd8d48988d176941735,100 Richmond St. West.,St. James Town,43.65,-79.38,Downtown Toronto
4bd0b30d41b9ef3b8fa0fae5,LUSH,43.653557,-79.3804,Cosmetics Shop,4bf58dd8d48988d10c951735,"220 Yonge St, Unit B215-A (in Toronto Eaton Centre)",St. James Town,43.65,-79.38,Downtown Toronto
4b059c24f964a520c2df22e3,Indigospirit,43.64834987590252,-79.38034747310336,Bookstore,4bf58dd8d48988d114951735,"1 First Canadian Place, Unit SM18 (in First Canadian Place)",St. James Town,43.65,-79.38,Downtown Toronto
5a32970da42362290203a9d6,Assembly Chef's Hall,43.650578865093934,-79.3834119303614,Food Court,4bf58dd8d48988d120951735,111 Richmond St W (btwn York & Bay St),St. James Town,43.65,-79.38,Downtown Toronto
5a3a846af62e0960e9364d11,Bulldog On The Block,43.65065218852629,-79.38414092873634,Coffee Shop,4bf58dd8d48988d1e0931735,111 Richmond St W (York),St. James Town,43.65,-79.38,Downtown Toronto
4b8d4365f964a520a0f032e3,Pizzaiolo,43.65020573236071,-79.37618378615609,Pizza Place,4bf58dd8d48988d1ca941735,1 Toronto St. (at Court St.),St. James Town,43.65,-79.38,Downtown Toronto
4e186b29183880768f406e17,Sunset Grill,43.65166162378037,-79.3790751303271,Breakfast Spot,4bf58dd8d48988d143941735,1 Richmond St. W. (at Yonge St.),St. James Town,43.65,-79.38,Downtown Toronto
4adf85e1f964a5206e7b21e3,Hudson's Bay,43.652039815876805,-79.38039146122816,Department Store,4bf58dd8d48988d1f6941735,176 Yonge St (Queen St W),St. James Town,43.65,-79.38,Downtown Toronto
57963897498e6873394a559d,Versus Coffee,43.65121343781903,-79.37523564828548,Coffee Shop,4bf58dd8d48988d1e0931735,70 Adelaide St E (at Church St),St. James Town,43.65,-79.38,Downtown Toronto
4ba90db8f964a5203f073ae3,Sweet Lulu,43.65055650489936,-79.38117543224395,Asian Restaurant,4bf58dd8d48988d142941735,350 Bay St (at Temperance St),St. James Town,43.65,-79.38,Downtown Toronto
52fea9c4498e17cea2b55e68,Papyrus,43.64819540954937,-79.3813921854217,Gift Shop,4bf58dd8d48988d128951735,66 Wellington St. W (in TD Bank Tower),St. James Town,43.65,-79.38,Downtown Toronto
574ad72238fa943556d93b8e,Gyu-Kaku Japanese BBQ,43.651422275497914,-79.37504693687086,Japanese Restaurant,4bf58dd8d48988d111941735,81 Church St (at Adelaide St E),St. James Town,43.65,-79.38,Downtown Toronto
4ccad68a19f376b060625eea,Garrison Bespoke,43.648102,-79.376334,Tailor Shop,5032781d91d4c4b30a586d5b,"26 Wellington St E, #101",St. James Town,43.65,-79.38,Downtown Toronto
4b999927f964a5207c8635e3,NAMI,43.650853361785124,-79.37588746641697,Japanese Restaurant,4bf58dd8d48988d111941735,55 Adelaide Street East (at Church street),St. James Town,43.65,-79.38,Downtown Toronto
5807af6d38fa30a2181f644a,The Poké Box,43.65046931503178,-79.37631703952829,Poke Place,5bae9231bedf3950379f89d4,36 Toronto St (at Adelaide St E),St. James Town,43.65,-79.38,Downtown Toronto
5aff06ca6e4650002cc6286b,Rosalinda,43.650252483069295,-79.38515575620075,Vegetarian / Vegan Restaurant,4bf58dd8d48988d1d3941735,133 Richmond St W,St. James Town,43.65,-79.38,Downtown Toronto
583f54320923922e8141d360,Crepe TO,43.650063279511016,-79.37458664523871,Creperie,52e81612bcbc57f1066b79f2,52 Church Street,St. James Town,43.65,-79.38,Downtown Toronto
572e60ce498e6a2425b14e1a,FLOCK Rotisserie + Greens,43.65098849486318,-79.38191708712704,Salad Place,4bf58dd8d48988d1bd941735,67 Richmond Street West,St. James Town,43.65,-79.38,Downtown Toronto
4b8d5856f964a520f4f532e3,Noodle King,43.65170632794881,-79.38304628912547,Asian Restaurant,4bf58dd8d48988d142941735,123 Queen St. W. (in Toronto's PATH Walkway),St. James Town,43.65,-79.38,Downtown Toronto
4b2a6eb8f964a52012a924e3,Indigo,43.65351471121164,-79.38069591056922,Bookstore,4bf58dd8d48988d114951735,220 Yonge St,St. James Town,43.65,-79.38,Downtown Toronto
505c7c30e4b071a17ec2678f,Hawthorne Food and Drink,43.652270129568336,-79.37631758327606,Gastropub,4bf58dd8d48988d155941735,Main Floor. 60 Richmond St. East (At Berti),St. James Town,43.65,-79.38,Downtown Toronto
573b65fb498e9bcba6b1089a,Five Guys,43.6487987190222,-79.3816807899204,Burger Joint,4bf58dd8d48988d16c941735,"100 King St. West, Space 93",St. James Town,43.65,-79.38,Downtown Toronto
56df0683498e7d0423e91b5b,iQ Food Co. (First Canadian Place),43.64835708519922,-79.38219241858727,Salad Place,4bf58dd8d48988d1bd941735,Canada,St. James Town,43.65,-79.38,Downtown Toronto
4ae73054f964a5203ca921e3,Ki Modern Japanese + Bar,43.647223,-79.3793738,Japanese Restaurant,4bf58dd8d48988d111941735,181 Bay St (at Wellington St. W),St. James Town,43.65,-79.38,Downtown Toronto
4ae7199ff964a52068a821e3,Bymark,43.647217284018005,-79.38125188166379,Restaurant,4bf58dd8d48988d1c4941735,66 Wellington St. W (btwn York & Bay St.),St. James Town,43.65,-79.38,Downtown Toronto
4bb79860cf2fc9b616779e02,Berczy Park,43.64804835388851,-79.3751722909452,Park,4bf58dd8d48988d163941735,35 Wellington St. East,St. James Town,43.65,-79.38,Downtown Toronto
4b8eaea1f964a520b03033e3,Booster Juice,43.65265752,-79.37845927,Smoothie Shop,52f2ab2ebcbc57f1066b8b41,"2 Queen Street East, Suite #110 (Suite #110)",St. James Town,43.65,-79.38,Downtown Toronto
4bbe0c134e069c745a829fe3,Metropolitan Resto Bar,43.65006166044848,-79.3771814107564,Italian Restaurant,4bf58dd8d48988d110941735,20 Victoria Street (King St. E.),St. James Town,43.65,-79.38,Downtown Toronto
4adc5c6af964a520da2b21e3,Mercatto,43.6502431921682,-79.38081989149896,Italian Restaurant,4bf58dd8d48988d110941735,330 Bay St. (btwn Temperance & Adelaide),St. James Town,43.65,-79.38,Downtown Toronto
4ad4c062f964a520e5f720e3,Four Seasons Centre for the Performing Arts,43.650592,-79.385806,Concert Hall,5032792091d4c4b30a586d5c,145 Queen St. W (at University Ave.),St. James Town,43.65,-79.38,Downtown Toronto
51ae5eaa498e5c629f21f431,Olly Fresco's,43.646912231909276,-79.37959661696463,Deli / Bodega,4bf58dd8d48988d146941735,200 Bay Street,St. James Town,43.65,-79.38,Downtown Toronto
5979225fa87921424da2e994,Sud Forno,43.65093965733832,-79.37904545824371,Bakery,4bf58dd8d48988d16a941735,132 Yonge Street (Adelaide),St. James Town,43.65,-79.38,Downtown Toronto
4b2d7d0ff964a520b5d724e3,Mirto,43.650702,-79.376307,Italian Restaurant,4bf58dd8d48988d110941735,25 Toronto Street (Adelaide Street),St. James Town,43.65,-79.38,Downtown Toronto
5a6bad222632ec473853718a,Tachi,43.65059603893127,-79.38339613055128,Sushi Restaurant,4bf58dd8d48988d1d2941735,111 Richmond St W (York St),St. James Town,43.65,-79.38,Downtown Toronto
4af72034f964a5202b0622e3,HomeSense,43.6531486,-79.3794184,Furniture / Home Store,4bf58dd8d48988d1f8941735,195 Yonge Street (at Queen St E),St. James Town,43.65,-79.38,Downtown Toronto
4e048b98315168be7fd7ee4d,Estiatorio Volos,43.65032912559998,-79.38453301297716,Greek Restaurant,4bf58dd8d48988d10e941735,133 Richmond St. W (at York St.),St. James Town,43.65,-79.38,Downtown Toronto
5553954a498e8e11bc49ecf2,Sam James Coffee Bar (SJCB),43.65031871629752,-79.37621650642859,Coffee Shop,4bf58dd8d48988d1e0931735,15 Toronto Street,St. James Town,43.65,-79.38,Downtown Toronto
4b749e98f964a5202ce82de3,SEPHORA,43.6535272,-79.3801543,Cosmetics Shop,4bf58dd8d48988d10c951735,"220 Yonge Street, Space #3-131 (in Toronto Eaton Centre)",St. James Town,43.65,-79.38,Downtown Toronto
4fccaa8fe4b05a98df3d9417,Sam James Coffee Bar (SJCB),43.64788137014028,-79.38433152836829,Café,4bf58dd8d48988d16d941735,150 King St. W (in the PATH),St. James Town,43.65,-79.38,Downtown Toronto
537773d1498e74a75bb75c1e,Eggspectation Bell Trinity Square,43.65314383888587,-79.38198016678167,Breakfast Spot,4bf58dd8d48988d143941735,483 Bay Street (Albert Street),St. James Town,43.65,-79.38,Downtown Toronto
5b6c842bc36588002c80a934,Cafe Landwer,43.64875349932059,-79.3853673607289,Café,4bf58dd8d48988d16d941735,165 University Ave (Adelaide St W),St. James Town,43.65,-79.38,Downtown Toronto
4c8166f4d34ca143fc272280,Toronto Athletic Club,43.647359553534905,-79.3811766566002,Gym,4bf58dd8d48988d176941735,79 Wellington Street West,St. James Town,43.65,-79.38,Downtown Toronto
595e825350a6f05c631431b0,Buster's Sea Cove,43.64777410584289,-79.37918080262172,Seafood Restaurant,4bf58dd8d48988d1ce941735,199 Bay Street (Commerce Court),St. James Town,43.65,-79.38,Downtown Toronto
4b981b46f964a520c22c35e3,Starbucks,43.647261,-79.378599,Coffee Shop,4bf58dd8d48988d1e0931735,"181 Bay St, Path (in Brookfield Place Food Court)",St. James Town,43.65,-79.38,Downtown Toronto
4ad788c8f964a520e40b21e3,Apple Eaton Centre,43.6528318,-79.3805553,Electronics Store,4bf58dd8d48988d122951735,220 Yonge St (Queen St W),St. James Town,43.65,-79.38,Downtown Toronto
59ab10e242d8c27897e996cb,Dog Fountain,43.64799795147863,-79.37536096948996,Fountain,56aa371be4b08b9a8d573547,Toronto ON M5E,St. James Town,43.65,-79.38,Downtown Toronto
4e88e0d1d3e39d6f4e81a1dd,Topman,43.652281488745565,-79.38001554865625,Clothing Store,4bf58dd8d48988d103951735,176 Yonge St (at Queen St),St. James Town,43.65,-79.38,Downtown Toronto
5632426a498e0433cad5aa04,Ruby Thai (First Canadian Place),43.64909140219368,-79.38159990145141,Thai Restaurant,4bf58dd8d48988d149941735,Canada,St. James Town,43.65,-79.38,Downtown Toronto
5462ac56498e128ccafe8fea,Pizzeria Libretto,43.64833354686235,-79.38511050184168,Pizza Place,4bf58dd8d48988d1ca941735,155 University Ave (at Pearl St),St. James Town,43.65,-79.38,Downtown Toronto
50b7c53616485cd9efad60d5,Sukhothai,43.64848710249909,-79.37454735245633,Thai Restaurant,4bf58dd8d48988d149941735,52 Wellington St. E. (at Church St),St. James Town,43.65,-79.38,Downtown Toronto
4cb1169939458cfab0c908a0,Carisma,43.64961671774303,-79.3754337751762,Italian Restaurant,4bf58dd8d48988d110941735,15 Toronto St (Toronto Street),St. James Town,43.65,-79.38,Downtown Toronto
4dfe1cf0a809d61e2fc568ce,Bannock,43.652101173138405,-79.38117828399939,Restaurant,4bf58dd8d48988d1c4941735,401 Bay St.,St. James Town,43.65,-79.38,Downtown Toronto
4b0afc19f964a520212b23e3,Cedarvale Park,43.692534923091934,-79.42870527613704,Field,4bf58dd8d48988d15f941735,100 glen cedar (Strathearn),Humewood-Cedarvale,43.69,-79.43,York
4c24abfcf7ced13aa425236d,Cedarvale Ravine,43.690188230007266,-79.42610580222994,Trail,4bf58dd8d48988d159941735,Canada,Humewood-Cedarvale,43.69,-79.43,York
4d1cd5f409546dcb10f1d538,Phil White Arena,43.69130271699826,-79.43176051142332,Hockey Arena,4bf58dd8d48988d185941735,443 Arlington Avenue,Humewood-Cedarvale,43.69,-79.43,York
4c86e638110176b0e9cab340,K & K,43.6894497552931,-79.43460190804107,Grocery Store,4bf58dd8d48988d118951735,468 Vaughan Road (Atlas Av),Humewood-Cedarvale,43.69,-79.43,York
4c9e52cb0e9bb1f7f735e65f,Section 220 - The Red Brigade,43.68639832350953,-79.42857338070692,Soccer Stadium,4bf58dd8d48988d188941735,BMO Field (The Ex),Humewood-Cedarvale,43.69,-79.43,York
4db1acf14df03036e8d3e8da,Cy Townsend Park,43.68964242001997,-79.43532528474807,Park,4bf58dd8d48988d163941735,Vaughan Rd (at Winona Dr),Humewood-Cedarvale,43.69,-79.43,York
4b017e51f964a520d84222e3,LCBO,43.642098691959625,-79.5765915607928,Liquor Store,4bf58dd8d48988d186941735,662 Burnhamthorpe Rd. (at Saturn Rd.),"Eringate, Bloordale Gardens, Old Burnhamthorpe, Markland Wood",43.64,-79.58,Etobicoke
5cebda3300b068002dca9d81,Starbucks,43.641312,-79.576924,Coffee Shop,4bf58dd8d48988d1e0931735,666 Burnhamthorpe Rd,"Eringate, Bloordale Gardens, Old Burnhamthorpe, Markland Wood",43.64,-79.58,Etobicoke
4b017e8cf964a520da4222e3,The Beer Store,43.6413126,-79.5769248,Beer Store,5370f356bcbc57f1066c94c2,666 Burnhamthorpe Rd,"Eringate, Bloordale Gardens, Old Burnhamthorpe, Markland Wood",43.64,-79.58,Etobicoke
4ca0951b8afca093f7b11316,Petro-Canada,43.639199582054125,-79.58374321460724,Gas Station,4bf58dd8d48988d113951735,830 Burnhamthorpe Rd,"Eringate, Bloordale Gardens, Old Burnhamthorpe, Markland Wood",43.64,-79.58,Etobicoke
57213eb9cd10ddb43c64eefc,Shoppers Drug Mart,43.641312,-79.576924,Pharmacy,4bf58dd8d48988d10f951735,666 Burnhamthorpe Rd,"Eringate, Bloordale Gardens, Old Burnhamthorpe, Markland Wood",43.64,-79.58,Etobicoke
4cb4e17052edb1f7745763fe,Pizza Hut,43.641545505897206,-79.57631119687214,Pizza Place,4bf58dd8d48988d1ca941735,666 Burnhamthorpe Road,"Eringate, Bloordale Gardens, Old Burnhamthorpe, Markland Wood",43.64,-79.58,Etobicoke
4b251b4cf964a520586c24e3,Cafe Sympatico,43.641820470953256,-79.57672066335874,Café,4bf58dd8d48988d16d941735,666 Burnhamthorpe Rd. (at Saturn Rd.),"Eringate, Bloordale Gardens, Old Burnhamthorpe, Markland Wood",43.64,-79.58,Etobicoke
4bcf9b5e9854d13a2876f64d,Bloordale Park,43.64115,-79.578261,Park,4bf58dd8d48988d163941735,680 Burnamthorpe Rd,"Eringate, Bloordale Gardens, Old Burnhamthorpe, Markland Wood",43.64,-79.58,Etobicoke
4f1ae0c2e4b095bc4517a2df,Pet Valu,43.64166745232465,-79.57704986776474,Pet Store,4bf58dd8d48988d100951735,666 Burnhamthorpe Road,"Eringate, Bloordale Gardens, Old Burnhamthorpe, Markland Wood",43.64,-79.58,Etobicoke
4bc366dab492d13a51b2a860,Chick-N-Joy,43.76875171771289,-79.18798174616069,Fried Chicken Joint,4d4ae6fc7a7b7dea34424761,4449 Kingston Road (at Lawrence and Morningside),"Guildwood, Morningside, West Hill",43.77,-79.19,Scarborough
4ba164fdf964a52039b337e3,Bulk Barn,43.77134173380578,-79.1843408346176,Food & Drink Shop,4bf58dd8d48988d1f9941735,4525 Kingston Rd (Morningside Crossing),"Guildwood, Morningside, West Hill",43.77,-79.19,Scarborough
4b3a9504f964a520646a25e3,LCBO,43.77146181777272,-79.18438374996185,Liquor Store,4bf58dd8d48988d186941735,4525 Kingston Rd. (at Lawrence Ave. E),"Guildwood, Morningside, West Hill",43.77,-79.19,Scarborough
4b6074e3f964a5200fe729e3,Swiss Chalet,43.76812209738294,-79.19049329250134,Restaurant,4bf58dd8d48988d1c4941735,4410 Kingston Rd,"Guildwood, Morningside, West Hill",43.77,-79.19,Scarborough
4c9fdb04542b224bca4201a0,Little Caesars Pizza,43.76904597684398,-79.18438601716002,Pizza Place,4bf58dd8d48988d1ca941735,4218 Lawrence Avenue East,"Guildwood, Morningside, West Hill",43.77,-79.19,Scarborough
4beca2f9d6e676b0538764d4,Booster Juice,43.77066813,-79.18415042,Smoothie Shop,52f2ab2ebcbc57f1066b8b41,"4525 Kingston Road, Unit #H8 (at Collinsgrove Rd.)","Guildwood, Morningside, West Hill",43.77,-79.19,Scarborough
510bd6f1e4b0256d6cc14409,Sunset Grill,43.77231854994461,-79.18490011736371,Breakfast Spot,4bf58dd8d48988d143941735,4551 Kingston Rd. (Lawrence),"Guildwood, Morningside, West Hill",43.77,-79.19,Scarborough
4bdcd893462b2d7f13a3113c,The Beer Store,43.769793,-79.1875054,Beer Store,5370f356bcbc57f1066c94c2,4479 Kingston Rd Unit 1 (btw Morningside & Lawrence),"Guildwood, Morningside, West Hill",43.77,-79.19,Scarborough
4beee041e24d20a1cd857314,RBC Royal Bank,43.76678992471017,-79.19115118872593,Bank,4bf58dd8d48988d10a951735,4374 KINGSTON RD (Kingston & Lawrence),"Guildwood, Morningside, West Hill",43.77,-79.19,Scarborough
4cc33d971e596dcbe61ac967,TD Canada Trust,43.770997118312,-79.18599759390418,Bank,4bf58dd8d48988d10a951735,4515 Kingston Rd (at Morningside Ave.),"Guildwood, Morningside, West Hill",43.77,-79.19,Scarborough
4c83f00d2f1c236a8d704743,Pizza Hut,43.77060630217822,-79.1863608079143,Pizza Place,4bf58dd8d48988d1ca941735,259 Morningside Ave,"Guildwood, Morningside, West Hill",43.77,-79.19,Scarborough
4b9ebe82f964a5206efe36e3,Shoeless Joe's,43.768967,-79.185691,Sports Bar,4bf58dd8d48988d11d941735,1D-245 Morningside Ave (Lawrence Ave E),"Guildwood, Morningside, West Hill",43.77,-79.19,Scarborough
4b75e7bbf964a520992d2ee3,Shoppers Drug Mart,43.770282,-79.185012,Pharmacy,4bf58dd8d48988d10f951735,255 Morningside Ave (at Kingston Rd.),"Guildwood, Morningside, West Hill",43.77,-79.19,Scarborough
4bcb5d75937ca593956ba992,Subway,43.7718316,-79.1851095,Sandwich Place,4bf58dd8d48988d1c5941735,4545 Kingston Rd (Morningside Crossing),"Guildwood, Morningside, West Hill",43.77,-79.19,Scarborough
4bd22faacaff9521f94cd2f0,Dollarama,43.771085,-79.184288,Discount Store,52dea92d3cf9994f4e043dbb,"4525 Kingston Rd, Morningside Mall (Morningside Crossing)","Guildwood, Morningside, West Hill",43.77,-79.19,Scarborough
4b06eb1cf964a52005f322e3,Starbucks,43.770281,-79.185016,Coffee Shop,4bf58dd8d48988d1e0931735,255 Morningside Avenue (Kingston Rd),"Guildwood, Morningside, West Hill",43.77,-79.19,Scarborough
4c7ee2efd860b60c915d5f9d,Taste Of Greek Cuisine,43.768259,-79.189608,Greek Restaurant,4bf58dd8d48988d10e941735,Toronto ON,"Guildwood, Morningside, West Hill",43.77,-79.19,Scarborough
55198a64498eed3a6b5f76e2,KFC,43.7689,-79.1856,Fast Food Restaurant,4bf58dd8d48988d16e941735,245 Morningside Avenue,"Guildwood, Morningside, West Hill",43.77,-79.19,Scarborough
4c85a8c2ee6fef3b9b123e5c,Pizza Pizza,43.7684131598454,-79.18792963027954,Pizza Place,4bf58dd8d48988d1ca941735,"4447 Kingston Road, Unit 7-8","Guildwood, Morningside, West Hill",43.77,-79.19,Scarborough
4b9023e9f964a5200e7833e3,McDonald's,43.76833410355284,-79.18828754919781,Fast Food Restaurant,4bf58dd8d48988d16e941735,4435 Kingston Rd. (Lawrence Ave E),"Guildwood, Morningside, West Hill",43.77,-79.19,Scarborough
4dea9ff9d4c00071b828d885,National Thrift,43.76799932703117,-79.19024597235247,Thrift / Vintage Store,4bf58dd8d48988d101951735,4410 Kingston Rd.,"Guildwood, Morningside, West Hill",43.77,-79.19,Scarborough
4b847328f964a520293631e3,Food Basics,43.770184072629206,-79.18485161662375,Supermarket,52f2ab2ebcbc57f1066b8b46,255 Morningside Ave (Kingston Rd.),"Guildwood, Morningside, West Hill",43.77,-79.19,Scarborough
4bf0101351f2c9b6be22f192,Pizza Nova,43.771506646379066,-79.18655439751862,Pizza Place,4bf58dd8d48988d1ca941735,4516 Kingston Rd,"Guildwood, Morningside, West Hill",43.77,-79.19,Scarborough
511fc593e4b048431b09a4fa,Morningside Crossing,43.770598655088534,-79.1855405666472,Shopping Mall,4bf58dd8d48988d1fd941735,265 Morningside Ave,"Guildwood, Morningside, West Hill",43.77,-79.19,Scarborough
4bb15f80f964a520898f3ce3,Best Coin Laundry,43.7686202,-79.1853145,Laundromat,52f2ab2ebcbc57f1066b8b33,4218 Lawrence Ave E (Morningside),"Guildwood, Morningside, West Hill",43.77,-79.19,Scarborough
4bbfb320920eb71335d0172c,Pita Land,43.7714507457918,-79.18529812721859,Greek Restaurant,4bf58dd8d48988d10e941735,4545 Kingston Rd (Morningside Morning),"Guildwood, Morningside, West Hill",43.77,-79.19,Scarborough
5411f741498e9ebd5e35d8bd,Big Bite Burrito,43.766299084470795,-79.19071980583941,Mexican Restaurant,4bf58dd8d48988d1c1941735,4383 Kingston rd.,"Guildwood, Morningside, West Hill",43.77,-79.19,Scarborough
4b9008acf964a520737133e3,Woburn Medical Centre,43.766631153138455,-79.19228553771973,Medical Center,4bf58dd8d48988d104941735,4125 Lawrence Ave E (Kingston Rd),"Guildwood, Morningside, West Hill",43.77,-79.19,Scarborough
56c27e75cd10dd4574dbe02a,Hakka No.1,43.77234,-79.18548,Indian Restaurant,4bf58dd8d48988d10f941735,4549A Kingston Rd (Morningside and Kingston),"Guildwood, Morningside, West Hill",43.77,-79.19,Scarborough
57fd24f6cd1083addfd77bf9,Sail Sushi,43.765951,-79.191275,Restaurant,4bf58dd8d48988d1c4941735,9-4352 Kingston Rd,"Guildwood, Morningside, West Hill",43.77,-79.19,Scarborough
5286b7dd498e8b747c1dfe71,The Beech Tree,43.680493,-79.288846,Gastropub,4bf58dd8d48988d155941735,924 Kingston Rd.,The Beaches,43.68,-79.29,East Toronto
4c0e40c0c700c9b6e185a3dd,Beaches Bake Shop,43.68036312619922,-79.28969173416124,Bakery,4bf58dd8d48988d16a941735,900 Kingston Rd. (Pickering Ave.),The Beaches,43.68,-79.29,East Toronto
4b083628f964a5205f0623e3,The Feathers Pub,43.680501,-79.287522,Pub,4bf58dd8d48988d11b941735,962 Kingston Rd (Scarborough Rd),The Beaches,43.68,-79.29,East Toronto
4bd461bc77b29c74a07d9282,Glen Manor Ravine,43.67682094413784,-79.29394208780985,Trail,4bf58dd8d48988d159941735,Glen Manor (Queen St.),The Beaches,43.68,-79.29,East Toronto
4b0f33d9f964a520556023e3,The Green Dragon,43.68083357358925,-79.28471180245829,Pub,4bf58dd8d48988d11b941735,1032 Kingston Road (At Victoria Park),The Beaches,43.68,-79.29,East Toronto
553588fb498ea7ca06504fc8,The Real Jerk Beaches,43.680781,-79.285727,Caribbean Restaurant,4bf58dd8d48988d144941735,1004 Kingston (Victoria Park),The Beaches,43.68,-79.29,East Toronto
51df585f498ef3df406f9857,No Bull Burger,43.680760634916616,-79.28501935257889,Burger Joint,4bf58dd8d48988d16c941735,1019 Kingston Rd. (at Bingham Ave.),The Beaches,43.68,-79.29,East Toronto
4e305ec68877341a515c1023,Subway,43.68071629118834,-79.28700577544936,Sandwich Place,4bf58dd8d48988d1c5941735,"968 Kingston Road, Units 4 & 5 (at Scarborough Rd.)",The Beaches,43.68,-79.29,East Toronto
4ade4a1af964a520ab7421e3,Starbucks,43.68088,-79.28497,Coffee Shop,4bf58dd8d48988d1e0931735,1020 Kingston Rd (Bingham Ave),The Beaches,43.68,-79.29,East Toronto
4ba2b834f964a5203f1338e3,Mullins Irish Pub,43.68034802625127,-79.2893703487739,Pub,4bf58dd8d48988d11b941735,917 Kingston Rd (at Balsam Ave),The Beaches,43.68,-79.29,East Toronto
4b6a3522f964a5201acd2be3,Threads Lifestyle,43.680515542044134,-79.28775159727243,Clothing Store,4bf58dd8d48988d103951735,950 Kingston Rd. (at Scarborough Rd.),The Beaches,43.68,-79.29,East Toronto
4bacfb3af964a520e6203be3,Savoury Grounds,43.680540277686,-79.28742125217829,Coffee Shop,4bf58dd8d48988d1e0931735,285 Scarborough Rd (Kingston Rd),The Beaches,43.68,-79.29,East Toronto
4df91c4bae60f95f82229ad5,Upper Beaches,43.68056321147582,-79.2928688743688,Neighborhood,4f2a25ac4b909258e854f55f,Toronto ON,The Beaches,43.68,-79.29,East Toronto
4d87671b5e70224b8db64809,Trinity Gallery,43.6821531100509,-79.28936295790203,Furniture / Home Store,4bf58dd8d48988d1f8941735,926 Kingston Rd. (at Lawlor Ave.),The Beaches,43.68,-79.29,East Toronto
506db1a9e4b0a3f3b31412f0,Richmond Station,43.65156872562108,-79.37926594000328,American Restaurant,4bf58dd8d48988d14e941735,1 Richmond Street West (Yonge Street),Berczy Park,43.65,-79.38,Downtown Toronto
514627d1e4b0dba1b85e9ba8,Dineen Coffee,43.650497,-79.378765,Café,4bf58dd8d48988d16d941735,140 Yonge St (at Temperance St),Berczy Park,43.65,-79.38,Downtown Toronto
4ea43642be7ba4918efc5afa,Adelaide Club Toronto,43.64927944291712,-79.38192123284551,Gym / Fitness Center,4bf58dd8d48988d175941735,1 First Canadian Place,Berczy Park,43.65,-79.38,Downtown Toronto
501ae947e4b0d11883b910a7,Equinox Bay Street,43.64809974034856,-79.37998869411526,Gym,4bf58dd8d48988d176941735,"199 Bay St (at Commerce Court West, PATH Level)",Berczy Park,43.65,-79.38,Downtown Toronto
59cd51c71b0ea516e9e7b3aa,Pilot Coffee Roasters,43.648835391245896,-79.3809358125033,Coffee Shop,4bf58dd8d48988d1e0931735,100 King St W (Bay St),Berczy Park,43.65,-79.38,Downtown Toronto
4dcbf219d22d7ffe9d39197e,Brick Street Bakery,43.6488151631615,-79.38060468610949,Bakery,4bf58dd8d48988d16a941735,100 King St W (at Bay St.),Berczy Park,43.65,-79.38,Downtown Toronto
50ecb1fae4b0beb13294f0aa,John & Sons Oyster House,43.65065642537144,-79.38161285228475,Seafood Restaurant,4bf58dd8d48988d1ce941735,56 Temperance Street,Berczy Park,43.65,-79.38,Downtown Toronto
52138db911d22803b334c641,Mos Mos Coffee,43.64815919753501,-79.37874450467258,Café,4bf58dd8d48988d16d941735,Commerce Court East,Berczy Park,43.65,-79.38,Downtown Toronto
4dc842f2e4cd5bc076711d90,GoodLife Fitness Toronto 137 Yonge Street,43.651242,-79.378068,Gym,4bf58dd8d48988d176941735,137 Yonge St (at Richmond St),Berczy Park,43.65,-79.38,Downtown Toronto
4b5ca7d8f964a5207c3c29e3,Beerbistro,43.64941904378835,-79.37723726034164,Gastropub,4bf58dd8d48988d155941735,18 King St. E (at Yonge St.),Berczy Park,43.65,-79.38,Downtown Toronto
53c524bd498efaeebf73b291,Café Plenty,43.6491179354577,-79.37831288380438,Café,4bf58dd8d48988d16d941735,1 King St W (Yonge St),Berczy Park,43.65,-79.38,Downtown Toronto
5214e7c111d2a83379eae21f,The Chase,43.650951982093595,-79.37942201983014,New American Restaurant,4bf58dd8d48988d157941735,10 Temperance St fl 5 (Yonge St),Berczy Park,43.65,-79.38,Downtown Toronto
57d0a3fb498e0fb29e892eed,Leña,43.651722,-79.379205,Latin American Restaurant,4bf58dd8d48988d1be941735,176 Yonge St.,Berczy Park,43.65,-79.38,Downtown Toronto
55fc571f498ec35023360858,Cactus Club Cafe,43.6495520142626,-79.38167072512041,American Restaurant,4bf58dd8d48988d14e941735,77 Adelaide St W (btwn Bay & York St),Berczy Park,43.65,-79.38,Downtown Toronto
4ad4c060f964a5207cf720e3,John & Sons Oyster House,43.65060229830571,-79.38155510682869,Seafood Restaurant,4bf58dd8d48988d1ce941735,56 Temperance St. (at Bay St.),Berczy Park,43.65,-79.38,Downtown Toronto
4bd8cde92e6f0f47dcb20808,Hy's Steakhouse,43.649504756476944,-79.38291850488223,Steakhouse,4bf58dd8d48988d1cc941735,120 Adelaide St. W (at York St),Berczy Park,43.65,-79.38,Downtown Toronto
59603f86112c6c70931c9401,King Taps,43.648475974183,-79.38205778358744,Gastropub,4bf58dd8d48988d155941735,100 King St W,Berczy Park,43.65,-79.38,Downtown Toronto
4ad4c05df964a52059f620e3,Canoe,43.647452066183476,-79.38132001815676,Restaurant,4bf58dd8d48988d1c4941735,66 Wellington St West (at Bay Street),Berczy Park,43.65,-79.38,Downtown Toronto
592c5bfb31fd147e47255fb3,Dineen @CommerceCourt,43.648250543365556,-79.38012728220869,Coffee Shop,4bf58dd8d48988d1e0931735,199 Bay St (King Street),Berczy Park,43.65,-79.38,Downtown Toronto
559a8f5a498e31f945041245,Maman,43.64830873804684,-79.38225333898805,Café,4bf58dd8d48988d16d941735,100 King St W (btwn Bay & York st),Berczy Park,43.65,-79.38,Downtown Toronto
5a8f505eb6eedb5c284a78ad,Walrus Pub & Beer Hall,43.64737470920577,-79.37951515363918,Pub,4bf58dd8d48988d11b941735,187 Bay St (Wellington St W),Berczy Park,43.65,-79.38,Downtown Toronto
4af96fbbf964a520c01122e3,One King West Hotel & Residence,43.6491395,-79.3778763,Hotel,4bf58dd8d48988d1fa931735,1 King St W (at Yonge St.),Berczy Park,43.65,-79.38,Downtown Toronto
4d3997e1687ca35dbd0081c4,The Gabardine,43.65098801064232,-79.38122513218154,American Restaurant,4bf58dd8d48988d14e941735,372 Bay St (at Richmond St.),Berczy Park,43.65,-79.38,Downtown Toronto
5894c1f9266c1121f0a757d1,Boxcar Social Temperance,43.65055725249405,-79.38195634640063,Bar,4bf58dd8d48988d116941735,70 Temperance Street,Berczy Park,43.65,-79.38,Downtown Toronto
50e44770e4b0e03a48c0d8a8,Kupfert & Kim (First Canadian Place),43.64854659465186,-79.38162406470161,Gluten-free Restaurant,4c2cd86ed066bed06c3c5209,100 King Street West,Berczy Park,43.65,-79.38,Downtown Toronto
4d14cb61bb488cfa1b349ad4,John Allans,43.651446635211904,-79.38135389611388,Salon / Barbershop,4bf58dd8d48988d110951735,"176 Yonge St., 2nd Fl",Berczy Park,43.65,-79.38,Downtown Toronto
5a1df4408ad62e3314313889,Craft Beer Market,43.6498722789121,-79.37839828995996,Beer Bar,56aa371ce4b08b9a8d57356c,1 Adelaide St E,Berczy Park,43.65,-79.38,Downtown Toronto
4b3d49e6f964a520ad9125e3,Cambridge Suites Toronto,43.65183649475983,-79.37810738045548,Hotel,4bf58dd8d48988d1fa931735,15 Richmond ST E,Berczy Park,43.65,-79.38,Downtown Toronto
4ae8c1d8f964a52005b221e3,The National Club,43.64934259283233,-79.3805735731846,Wine Bar,4bf58dd8d48988d123941735,303 Bay Street (at Adelaide),Berczy Park,43.65,-79.38,Downtown Toronto
4c1417c182a3c9b676b9fcf8,Portico,43.651855687900124,-79.37805540906518,Restaurant,4bf58dd8d48988d1c4941735,15 Richmond St. E (at Victoria St.),Berczy Park,43.65,-79.38,Downtown Toronto
4adf7d0bf964a520127b21e3,The Omni King Edward Hotel,43.64919051601911,-79.37600612640387,Hotel,4bf58dd8d48988d1fa931735,37 King Street East (bwtn Victoria St. and Toronto St.),Berczy Park,43.65,-79.38,Downtown Toronto
4b198909f964a52006df23e3,Starbucks,43.650159,-79.377793,Coffee Shop,4bf58dd8d48988d1e0931735,"1 Adelaide St E, Suite 100 (at Yonge St.)",Berczy Park,43.65,-79.38,Downtown Toronto
4ad4c062f964a520b5f720e3,Elgin And Winter Garden Theatres,43.653393796019586,-79.3785073962175,Theater,4bf58dd8d48988d137941735,189 Yonge St (btwn Queen St E & Shuter St),Berczy Park,43.65,-79.38,Downtown Toronto
4ad4c05ff964a520eff620e3,Design Exchange,43.64797219581623,-79.38010382588462,Art Gallery,4bf58dd8d48988d1e2931735,234 Bay St. (btwn King & Wellington),Berczy Park,43.65,-79.38,Downtown Toronto
4ad4c05ef964a520a6f620e3,Nathan Phillips Square,43.65227047322295,-79.38351631164551,Plaza,4bf58dd8d48988d164941735,100 Queen St W (at Bay St),Berczy Park,43.65,-79.38,Downtown Toronto
4ad4c05ef964a5208ef620e3,Old City Hall,43.652008800876125,-79.3817442232328,Monument / Landmark,4bf58dd8d48988d12d941735,60 Queen Street West,Berczy Park,43.65,-79.38,Downtown Toronto
4ad69511f964a520e40721e3,The Keg Steakhouse + Bar - York Street,43.64998659318569,-79.38410336664538,Restaurant,4bf58dd8d48988d1c4941735,165 York St (btwn Richmond St. & Adelaide St.),Berczy Park,43.65,-79.38,Downtown Toronto
4ad4c05cf964a520bbf520e3,Cosmopolitan Toronto Centre Hotel & Spa,43.64906432957466,-79.37759759701125,Hotel,4bf58dd8d48988d1fa931735,8 Colborne St (at Yonge St),Berczy Park,43.65,-79.38,Downtown Toronto
528e195b11d2ad1ecaef8c8c,DAVIDsTEA,43.650546552943766,-79.38338493349875,Tea Room,4bf58dd8d48988d1dc931735,R134-120 Adelaide St W,Berczy Park,43.65,-79.38,Downtown Toronto
4b114234f964a520637923e3,Pumpernickel's Deli,43.64883150054619,-79.38197006345457,Deli / Bodega,4bf58dd8d48988d146941735,100 King St. W (at First Canadian Place Food Court),Berczy Park,43.65,-79.38,Downtown Toronto
4ae7b370f964a5206ead21e3,Petit Four Bakery,43.647743692587085,-79.37958814250598,Sandwich Place,4bf58dd8d48988d1c5941735,"187 Bay St, Commerce Court South, Concourse Level (at Wellington St W)",Berczy Park,43.65,-79.38,Downtown Toronto
4ad4c05cf964a52006f620e3,Victoria's Restaurant,43.64929834396347,-79.37643067251867,Restaurant,4bf58dd8d48988d1c4941735,37 King Street East (at Le Meridien King Edward Hotel),Berczy Park,43.65,-79.38,Downtown Toronto
54132b3b498ee9ca9332e189,M Square Coffee Co,43.65121797253777,-79.38355459932247,Coffee Shop,4bf58dd8d48988d1e0931735,C24 - 123 Queen St W,Berczy Park,43.65,-79.38,Downtown Toronto
4b49183ff964a520a46526e3,Terroni,43.650927,-79.375602,Italian Restaurant,4bf58dd8d48988d110941735,57 Adelaide St. E (at Church St.),Berczy Park,43.65,-79.38,Downtown Toronto
597ae286b2958f7e52761fe8,The Adelaide Hotel Toronto,43.6498312,-79.3801639,Hotel,4bf58dd8d48988d1fa931735,325 Bay St,Berczy Park,43.65,-79.38,Downtown Toronto
505b8b544c7fd4d07eae01f3,GoodLife Fitness Toronto Street Women's Only,43.6504,-79.3767,Gym,4bf58dd8d48988d176941735,"36 Toronto St, 200 (at Victoria St.)",Berczy Park,43.65,-79.38,Downtown Toronto
4ad4c05ef964a520d8f620e3,Hockey Hall Of Fame (Hockey Hall of Fame),43.646974451431056,-79.37732323942681,Museum,4bf58dd8d48988d181941735,30 Yonge St. (at Brookfield Pl.),Berczy Park,43.65,-79.38,Downtown Toronto
4fcb97f7e4b00a0e8520b055,Hogtown Smoke,43.64928693557788,-79.37468932637938,Food Truck,4bf58dd8d48988d1cb941735,1959 Queen St E,Berczy Park,43.65,-79.38,Downtown Toronto
4b8702fdf964a52055ab31e3,The Cambridge Club,43.65166287812755,-79.38307469732278,Gym,4bf58dd8d48988d176941735,100 Richmond St. West.,Berczy Park,43.65,-79.38,Downtown Toronto
4bd0b30d41b9ef3b8fa0fae5,LUSH,43.653557,-79.3804,Cosmetics Shop,4bf58dd8d48988d10c951735,"220 Yonge St, Unit B215-A (in Toronto Eaton Centre)",Berczy Park,43.65,-79.38,Downtown Toronto
4b059c24f964a520c2df22e3,Indigospirit,43.64834987590252,-79.38034747310336,Bookstore,4bf58dd8d48988d114951735,"1 First Canadian Place, Unit SM18 (in First Canadian Place)",Berczy Park,43.65,-79.38,Downtown Toronto
5a32970da42362290203a9d6,Assembly Chef's Hall,43.650578865093934,-79.3834119303614,Food Court,4bf58dd8d48988d120951735,111 Richmond St W (btwn York & Bay St),Berczy Park,43.65,-79.38,Downtown Toronto
5a3a846af62e0960e9364d11,Bulldog On The Block,43.65065218852629,-79.38414092873634,Coffee Shop,4bf58dd8d48988d1e0931735,111 Richmond St W (York),Berczy Park,43.65,-79.38,Downtown Toronto
4b8d4365f964a520a0f032e3,Pizzaiolo,43.65020573236071,-79.37618378615609,Pizza Place,4bf58dd8d48988d1ca941735,1 Toronto St. (at Court St.),Berczy Park,43.65,-79.38,Downtown Toronto
4e186b29183880768f406e17,Sunset Grill,43.65166162378037,-79.3790751303271,Breakfast Spot,4bf58dd8d48988d143941735,1 Richmond St. W. (at Yonge St.),Berczy Park,43.65,-79.38,Downtown Toronto
4adf85e1f964a5206e7b21e3,Hudson's Bay,43.652039815876805,-79.38039146122816,Department Store,4bf58dd8d48988d1f6941735,176 Yonge St (Queen St W),Berczy Park,43.65,-79.38,Downtown Toronto
57963897498e6873394a559d,Versus Coffee,43.65121343781903,-79.37523564828548,Coffee Shop,4bf58dd8d48988d1e0931735,70 Adelaide St E (at Church St),Berczy Park,43.65,-79.38,Downtown Toronto
4ba90db8f964a5203f073ae3,Sweet Lulu,43.65055650489936,-79.38117543224395,Asian Restaurant,4bf58dd8d48988d142941735,350 Bay St (at Temperance St),Berczy Park,43.65,-79.38,Downtown Toronto
52fea9c4498e17cea2b55e68,Papyrus,43.64819540954937,-79.3813921854217,Gift Shop,4bf58dd8d48988d128951735,66 Wellington St. W (in TD Bank Tower),Berczy Park,43.65,-79.38,Downtown Toronto
574ad72238fa943556d93b8e,Gyu-Kaku Japanese BBQ,43.651422275497914,-79.37504693687086,Japanese Restaurant,4bf58dd8d48988d111941735,81 Church St (at Adelaide St E),Berczy Park,43.65,-79.38,Downtown Toronto
4ccad68a19f376b060625eea,Garrison Bespoke,43.648102,-79.376334,Tailor Shop,5032781d91d4c4b30a586d5b,"26 Wellington St E, #101",Berczy Park,43.65,-79.38,Downtown Toronto
4b999927f964a5207c8635e3,NAMI,43.650853361785124,-79.37588746641697,Japanese Restaurant,4bf58dd8d48988d111941735,55 Adelaide Street East (at Church street),Berczy Park,43.65,-79.38,Downtown Toronto
5807af6d38fa30a2181f644a,The Poké Box,43.65046931503178,-79.37631703952829,Poke Place,5bae9231bedf3950379f89d4,36 Toronto St (at Adelaide St E),Berczy Park,43.65,-79.38,Downtown Toronto
5aff06ca6e4650002cc6286b,Rosalinda,43.650252483069295,-79.38515575620075,Vegetarian / Vegan Restaurant,4bf58dd8d48988d1d3941735,133 Richmond St W,Berczy Park,43.65,-79.38,Downtown Toronto
583f54320923922e8141d360,Crepe TO,43.650063279511016,-79.37458664523871,Creperie,52e81612bcbc57f1066b79f2,52 Church Street,Berczy Park,43.65,-79.38,Downtown Toronto
572e60ce498e6a2425b14e1a,FLOCK Rotisserie + Greens,43.65098849486318,-79.38191708712704,Salad Place,4bf58dd8d48988d1bd941735,67 Richmond Street West,Berczy Park,43.65,-79.38,Downtown Toronto
4b8d5856f964a520f4f532e3,Noodle King,43.65170632794881,-79.38304628912547,Asian Restaurant,4bf58dd8d48988d142941735,123 Queen St. W. (in Toronto's PATH Walkway),Berczy Park,43.65,-79.38,Downtown Toronto
4b2a6eb8f964a52012a924e3,Indigo,43.65351471121164,-79.38069591056922,Bookstore,4bf58dd8d48988d114951735,220 Yonge St,Berczy Park,43.65,-79.38,Downtown Toronto
505c7c30e4b071a17ec2678f,Hawthorne Food and Drink,43.652270129568336,-79.37631758327606,Gastropub,4bf58dd8d48988d155941735,Main Floor. 60 Richmond St. East (At Berti),Berczy Park,43.65,-79.38,Downtown Toronto
573b65fb498e9bcba6b1089a,Five Guys,43.6487987190222,-79.3816807899204,Burger Joint,4bf58dd8d48988d16c941735,"100 King St. West, Space 93",Berczy Park,43.65,-79.38,Downtown Toronto
56df0683498e7d0423e91b5b,iQ Food Co. (First Canadian Place),43.64835708519922,-79.38219241858727,Salad Place,4bf58dd8d48988d1bd941735,Canada,Berczy Park,43.65,-79.38,Downtown Toronto
4ae73054f964a5203ca921e3,Ki Modern Japanese + Bar,43.647223,-79.3793738,Japanese Restaurant,4bf58dd8d48988d111941735,181 Bay St (at Wellington St. W),Berczy Park,43.65,-79.38,Downtown Toronto
4ae7199ff964a52068a821e3,Bymark,43.647217284018005,-79.38125188166379,Restaurant,4bf58dd8d48988d1c4941735,66 Wellington St. W (btwn York & Bay St.),Berczy Park,43.65,-79.38,Downtown Toronto
4bb79860cf2fc9b616779e02,Berczy Park,43.64804835388851,-79.3751722909452,Park,4bf58dd8d48988d163941735,35 Wellington St. East,Berczy Park,43.65,-79.38,Downtown Toronto
4b8eaea1f964a520b03033e3,Booster Juice,43.65265752,-79.37845927,Smoothie Shop,52f2ab2ebcbc57f1066b8b41,"2 Queen Street East, Suite #110 (Suite #110)",Berczy Park,43.65,-79.38,Downtown Toronto
4bbe0c134e069c745a829fe3,Metropolitan Resto Bar,43.65006166044848,-79.3771814107564,Italian Restaurant,4bf58dd8d48988d110941735,20 Victoria Street (King St. E.),Berczy Park,43.65,-79.38,Downtown Toronto
4adc5c6af964a520da2b21e3,Mercatto,43.6502431921682,-79.38081989149896,Italian Restaurant,4bf58dd8d48988d110941735,330 Bay St. (btwn Temperance & Adelaide),Berczy Park,43.65,-79.38,Downtown Toronto
4ad4c062f964a520e5f720e3,Four Seasons Centre for the Performing Arts,43.650592,-79.385806,Concert Hall,5032792091d4c4b30a586d5c,145 Queen St. W (at University Ave.),Berczy Park,43.65,-79.38,Downtown Toronto
51ae5eaa498e5c629f21f431,Olly Fresco's,43.646912231909276,-79.37959661696463,Deli / Bodega,4bf58dd8d48988d146941735,200 Bay Street,Berczy Park,43.65,-79.38,Downtown Toronto
5979225fa87921424da2e994,Sud Forno,43.65093965733832,-79.37904545824371,Bakery,4bf58dd8d48988d16a941735,132 Yonge Street (Adelaide),Berczy Park,43.65,-79.38,Downtown Toronto
4b2d7d0ff964a520b5d724e3,Mirto,43.650702,-79.376307,Italian Restaurant,4bf58dd8d48988d110941735,25 Toronto Street (Adelaide Street),Berczy Park,43.65,-79.38,Downtown Toronto
5a6bad222632ec473853718a,Tachi,43.65059603893127,-79.38339613055128,Sushi Restaurant,4bf58dd8d48988d1d2941735,111 Richmond St W (York St),Berczy Park,43.65,-79.38,Downtown Toronto
4af72034f964a5202b0622e3,HomeSense,43.6531486,-79.3794184,Furniture / Home Store,4bf58dd8d48988d1f8941735,195 Yonge Street (at Queen St E),Berczy Park,43.65,-79.38,Downtown Toronto
4e048b98315168be7fd7ee4d,Estiatorio Volos,43.65032912559998,-79.38453301297716,Greek Restaurant,4bf58dd8d48988d10e941735,133 Richmond St. W (at York St.),Berczy Park,43.65,-79.38,Downtown Toronto
5553954a498e8e11bc49ecf2,Sam James Coffee Bar (SJCB),43.65031871629752,-79.37621650642859,Coffee Shop,4bf58dd8d48988d1e0931735,15 Toronto Street,Berczy Park,43.65,-79.38,Downtown Toronto
4b749e98f964a5202ce82de3,SEPHORA,43.6535272,-79.3801543,Cosmetics Shop,4bf58dd8d48988d10c951735,"220 Yonge Street, Space #3-131 (in Toronto Eaton Centre)",Berczy Park,43.65,-79.38,Downtown Toronto
4fccaa8fe4b05a98df3d9417,Sam James Coffee Bar (SJCB),43.64788137014028,-79.38433152836829,Café,4bf58dd8d48988d16d941735,150 King St. W (in the PATH),Berczy Park,43.65,-79.38,Downtown Toronto
537773d1498e74a75bb75c1e,Eggspectation Bell Trinity Square,43.65314383888587,-79.38198016678167,Breakfast Spot,4bf58dd8d48988d143941735,483 Bay Street (Albert Street),Berczy Park,43.65,-79.38,Downtown Toronto
